[
  {
    "kto_title": "가마오름",
    "contentid": "1884191",
    "contenttypeid": "12",
    "contenttype_label": "관광지",
    "cat1": "A01",
    "cat2": "A0101",
    "cat3": "A01010400",
    "addr1": "제주특별자치도 제주시 한경면 청수리",
    "lat": 33.3057279944,
    "lng": 126.2466098987
  },
  {
    "kto_title": "가문이오름(감은이오름)",
    "contentid": "1884505",
    "contenttypeid": "12",
    "contenttype_label": "관광지",
    "cat1": "A01",
    "cat2": "A0101",
    "cat3": "A01010400",
    "addr1": "제주특별자치도 서귀포시 표선면 가시리",
    "lat": 33.4018299117,
    "lng": 126.6876111209
  },
  {
    "kto_title": "가새기오름",
    "contentid": "1884521",
    "contenttypeid": "12",
    "contenttype_label": "관광지",
    "cat1": "A01",
    "cat2": "A0101",
    "cat3": "A01010400",
    "addr1": "제주특별자치도 제주시 오라삼동",
    "lat": 33.4893700755,
    "lng": 126.5038611983
  },
  {
    "kto_title": "가세오름",
    "contentid": "1885746",
    "contenttypeid": "12",
    "contenttype_label": "관광지",
    "cat1": "A01",
    "cat2": "A0101",
    "cat3": "A01010400",
    "addr1": "제주특별자치도 서귀포시 표선면 녹산로 554",
    "lat": 33.3931758821,
    "lng": 126.7231832338
  },
  {
    "kto_title": "가시리국산화풍력발전단지",
    "contentid": "3026711",
    "contenttypeid": "12",
    "contenttype_label": "관광지",
    "cat1": "A02",
    "cat2": "A0204",
    "cat3": "A02040400",
    "addr1": "제주특별자치도 서귀포시 표선면 녹산로 464-78",
    "lat": 33.3939370848,
    "lng": 126.7341100468
  },
  {
    "kto_title": "가시오름",
    "contentid": "1885754",
    "contenttypeid": "12",
    "contenttype_label": "관광지",
    "cat1": "A01",
    "cat2": "A0101",
    "cat3": "A01010400",
    "addr1": "제주특별자치도 서귀포시 대정읍 하모이삼로21번길 1",
    "lat": 33.2236315617,
    "lng": 126.2500169782
  },
  {
    "kto_title": "가파도",
    "contentid": "126446",
    "contenttypeid": "12",
    "contenttype_label": "관광지",
    "cat1": "A01",
    "cat2": "A0101",
    "cat3": "A01011300",
    "addr1": "제주특별자치도 서귀포시 대정읍 가파로",
    "lat": 33.1664326869,
    "lng": 126.2735884192
  },
  {
    "kto_title": "각시바위오름",
    "contentid": "1887368",
    "contenttypeid": "12",
    "contenttype_label": "관광지",
    "cat1": "A01",
    "cat2": "A0101",
    "cat3": "A01010400",
    "addr1": "제주특별자치도 서귀포시 호근동",
    "lat": 33.2777271543,
    "lng": 126.5259918298
  },
  {
    "kto_title": "갈마못(갈뫼못)",
    "contentid": "1887381",
    "contenttypeid": "12",
    "contenttype_label": "관광지",
    "cat1": "A01",
    "cat2": "A0101",
    "cat3": "A01010500",
    "addr1": "제주특별자치도 서귀포시 표선면 성읍리",
    "lat": 33.3873529469,
    "lng": 126.8116979172
  },
  {
    "kto_title": "갈중이(천연염색체험)",
    "contentid": "635593",
    "contenttypeid": "12",
    "contenttype_label": "관광지",
    "cat1": "A02",
    "cat2": "A0203",
    "cat3": "A02030200",
    "addr1": "제주특별자치도 서귀포시 사계남로216번길 24-61 갈중이",
    "lat": 33.235142398,
    "lng": 126.3136584209
  },
  {
    "kto_title": "감낭오름",
    "contentid": "1887493",
    "contenttypeid": "12",
    "contenttype_label": "관광지",
    "cat1": "A01",
    "cat2": "A0101",
    "cat3": "A01010400",
    "addr1": "제주특별자치도 서귀포시 안덕면 동광리",
    "lat": 33.3250274801,
    "lng": 126.3497088457
  },
  {
    "kto_title": "갑선이오름",
    "contentid": "1887866",
    "contenttypeid": "12",
    "contenttype_label": "관광지",
    "cat1": "A01",
    "cat2": "A0101",
    "cat3": "A01010400",
    "addr1": "제주특별자치도 서귀포시 표선면 가시리",
    "lat": 33.3608276172,
    "lng": 126.7818122232
  },
  {
    "kto_title": "강정천",
    "contentid": "127050",
    "contenttypeid": "12",
    "contenttype_label": "관광지",
    "cat1": "A01",
    "cat2": "A0101",
    "cat3": "A01010900",
    "addr1": "제주특별자치도 서귀포시 강정동",
    "lat": 33.2566620021,
    "lng": 126.474738413
  },
  {
    "kto_title": "강정포구",
    "contentid": "2779517",
    "contenttypeid": "12",
    "contenttype_label": "관광지",
    "cat1": "A01",
    "cat2": "A0101",
    "cat3": "A01011400",
    "addr1": "제주특별자치도 서귀포시 말질로 291",
    "lat": 33.2271624839,
    "lng": 126.4750196034
  },
  {
    "kto_title": "개오름",
    "contentid": "1887873",
    "contenttypeid": "12",
    "contenttype_label": "관광지",
    "cat1": "A01",
    "cat2": "A0101",
    "cat3": "A01010400",
    "addr1": "제주특별자치도 서귀포시 표선면 성읍이리로57번길 162",
    "lat": 33.423862104,
    "lng": 126.7682286281
  },
  {
    "kto_title": "개오리오름",
    "contentid": "1889809",
    "contenttypeid": "12",
    "contenttype_label": "관광지",
    "cat1": "A01",
    "cat2": "A0101",
    "cat3": "A01010400",
    "addr1": "제주특별자치도 제주시 봉개동",
    "lat": 33.4262287923,
    "lng": 126.6125115262
  },
  {
    "kto_title": "갯거리오름",
    "contentid": "1889833",
    "contenttypeid": "12",
    "contenttype_label": "관광지",
    "cat1": "A01",
    "cat2": "A0101",
    "cat3": "A01010400",
    "addr1": "제주특별자치도 서귀포시 대포동",
    "lat": 33.3101086116,
    "lng": 126.4578470138
  },
  {
    "kto_title": "거린사슴",
    "contentid": "1890152",
    "contenttypeid": "12",
    "contenttype_label": "관광지",
    "cat1": "A01",
    "cat2": "A0101",
    "cat3": "A01010400",
    "addr1": "제주특별자치도 서귀포시 1100로 823",
    "lat": 33.3073171985,
    "lng": 126.4543696003
  },
  {
    "kto_title": "거슨새미오름",
    "contentid": "1918646",
    "contenttypeid": "12",
    "contenttype_label": "관광지",
    "cat1": "A01",
    "cat2": "A0101",
    "cat3": "A01010400",
    "addr1": "제주특별자치도 제주시 구좌읍 송당리",
    "lat": 33.4521283086,
    "lng": 126.7610119406
  },
  {
    "kto_title": "걸시오름",
    "contentid": "1918965",
    "contenttypeid": "12",
    "contenttype_label": "관광지",
    "cat1": "A01",
    "cat2": "A0101",
    "cat3": "A01010400",
    "addr1": "제주특별자치도 제주시 1100로 2558-73 (노형동)",
    "lat": 33.4126617414,
    "lng": 126.4941248902
  },
  {
    "kto_title": "고근산",
    "contentid": "127051",
    "contenttypeid": "12",
    "contenttype_label": "관광지",
    "cat1": "A01",
    "cat2": "A0101",
    "cat3": "A01010400",
    "addr1": "제주특별자치도 서귀포시 서호동",
    "lat": 33.2668281661,
    "lng": 126.5139125656
  },
  {
    "kto_title": "고내포구",
    "contentid": "2791433",
    "contenttypeid": "12",
    "contenttype_label": "관광지",
    "cat1": "A01",
    "cat2": "A0101",
    "cat3": "A01011400",
    "addr1": "제주특별자치도 제주시 애월읍 고내리 1111-4",
    "lat": 33.4670588041,
    "lng": 126.3379150223
  },
  {
    "kto_title": "고배기동산",
    "contentid": "2819599",
    "contenttypeid": "12",
    "contenttype_label": "관광지",
    "cat1": "A01",
    "cat2": "A0101",
    "cat3": "A01010400",
    "addr1": "제주특별자치도 서귀포시 안덕면 광평리",
    "lat": 33.3308301199,
    "lng": 126.3817114923
  },
  {
    "kto_title": "고산일과해안도로",
    "contentid": "2779522",
    "contenttypeid": "12",
    "contenttype_label": "관광지",
    "cat1": "A01",
    "cat2": "A0101",
    "cat3": "A01010500",
    "addr1": "제주특별자치도 서귀포시 대정읍 영락하동로 9-6",
    "lat": 33.256424536,
    "lng": 126.2099419548
  },
  {
    "kto_title": "고살리 숲길",
    "contentid": "2661519",
    "contenttypeid": "12",
    "contenttype_label": "관광지",
    "cat1": "A01",
    "cat2": "A0101",
    "cat3": "A01010400",
    "addr1": "제주특별자치도 서귀포시 남원읍",
    "lat": 33.3172933815,
    "lng": 126.598479099
  },
  {
    "kto_title": "고스트타운",
    "contentid": "2759120",
    "contenttypeid": "12",
    "contenttype_label": "관광지",
    "cat1": "A02",
    "cat2": "A0202",
    "cat3": "A02020600",
    "addr1": "제주특별자치도 제주시 애월읍 부룡수길 35-14",
    "lat": 33.4763969581,
    "lng": 126.3568659412
  },
  {
    "kto_title": "곽지해수욕장",
    "contentid": "127870",
    "contenttypeid": "12",
    "contenttype_label": "관광지",
    "cat1": "A01",
    "cat2": "A0101",
    "cat3": "A01011200",
    "addr1": "제주특별자치도 제주시 애월읍 곽지리 1565",
    "lat": 33.4485353054,
    "lng": 126.3031045774
  },
  {
    "kto_title": "관덕정(제주)",
    "contentid": "126460",
    "contenttypeid": "12",
    "contenttype_label": "관광지",
    "cat1": "A02",
    "cat2": "A0201",
    "cat3": "A02010100",
    "addr1": "제주특별자치도 제주시 관덕로 19",
    "lat": 33.513295493,
    "lng": 126.5219701925
  },
  {
    "kto_title": "관음사(제주)",
    "contentid": "126456",
    "contenttypeid": "12",
    "contenttype_label": "관광지",
    "cat1": "A02",
    "cat2": "A0201",
    "cat3": "A02010800",
    "addr1": "제주특별자치도 제주시 산록북로 660",
    "lat": 33.4237615317,
    "lng": 126.5581440803
  },
  {
    "kto_title": "광명사(제주)",
    "contentid": "778296",
    "contenttypeid": "12",
    "contenttype_label": "관광지",
    "cat1": "A02",
    "cat2": "A0201",
    "cat3": "A02010800",
    "addr1": "제주특별자치도 서귀포시 중문상로17번길 51",
    "lat": 33.249045297,
    "lng": 126.4190406356
  },
  {
    "kto_title": "광치기해변",
    "contentid": "2564158",
    "contenttypeid": "12",
    "contenttype_label": "관광지",
    "cat1": "A01",
    "cat2": "A0101",
    "cat3": "A01011200",
    "addr1": "제주특별자치도 서귀포시 성산읍 고성리",
    "lat": 33.4515393485,
    "lng": 126.9246505478
  },
  {
    "kto_title": "괴오름",
    "contentid": "1918950",
    "contenttypeid": "12",
    "contenttype_label": "관광지",
    "cat1": "A01",
    "cat2": "A0101",
    "cat3": "A01010400",
    "addr1": "제주특별자치도 제주시 애월읍 봉성리 산41",
    "lat": 33.356088341,
    "lng": 126.3754586925
  },
  {
    "kto_title": "교래 삼다수마을",
    "contentid": "128443",
    "contenttypeid": "12",
    "contenttype_label": "관광지",
    "cat1": "A02",
    "cat2": "A0203",
    "cat3": "A02030100",
    "addr1": "제주특별자치도 제주시 조천읍 교래3길 98",
    "lat": 33.4315819724,
    "lng": 126.6746449016
  },
  {
    "kto_title": "구두리오름",
    "contentid": "1918984",
    "contenttypeid": "12",
    "contenttype_label": "관광지",
    "cat1": "A01",
    "cat2": "A0101",
    "cat3": "A01010400",
    "addr1": "제주특별자치도 서귀포시 표선면 가시리",
    "lat": 33.4124065362,
    "lng": 126.6885413552
  },
  {
    "kto_title": "구두미포구",
    "contentid": "2781394",
    "contenttypeid": "12",
    "contenttype_label": "관광지",
    "cat1": "A01",
    "cat2": "A0101",
    "cat3": "A01011400",
    "addr1": "제주특별자치도 서귀포시 보목동",
    "lat": 33.2368272299,
    "lng": 126.5965116372
  },
  {
    "kto_title": "구시물",
    "contentid": "1621059",
    "contenttypeid": "12",
    "contenttype_label": "관광지",
    "cat1": "A01",
    "cat2": "A0101",
    "cat3": "A01011000",
    "addr1": "제주특별자치도 제주시 애월읍 상귀리",
    "lat": 33.456530549,
    "lng": 126.4097117919
  },
  {
    "kto_title": "구엄리 돌염전",
    "contentid": "2779527",
    "contenttypeid": "12",
    "contenttype_label": "관광지",
    "cat1": "A01",
    "cat2": "A0101",
    "cat3": "A01011800",
    "addr1": "제주특별자치도 제주시 애월읍 구엄리",
    "lat": 33.4789303956,
    "lng": 126.3812109878
  },
  {
    "kto_title": "구엄어촌체험마을",
    "contentid": "129073",
    "contenttypeid": "12",
    "contenttype_label": "관광지",
    "cat1": "A02",
    "cat2": "A0203",
    "cat3": "A02030100",
    "addr1": "제주특별자치도 제주시 애월읍 애월해안로 713",
    "lat": 33.4839964391,
    "lng": 126.3772556628
  },
  {
    "kto_title": "구엄포구",
    "contentid": "2738659",
    "contenttypeid": "12",
    "contenttype_label": "관광지",
    "cat1": "A01",
    "cat2": "A0101",
    "cat3": "A01011400",
    "addr1": "제주특별자치도 제주시 애월읍 구엄리",
    "lat": 33.4843297214,
    "lng": 126.376411284
  },
  {
    "kto_title": "궷물오름",
    "contentid": "2765234",
    "contenttypeid": "12",
    "contenttype_label": "관광지",
    "cat1": "A01",
    "cat2": "A0101",
    "cat3": "A01010400",
    "addr1": "제주특별자치도 제주시 애월읍 유수암리",
    "lat": 33.3971037558,
    "lng": 126.4075105427
  },
  {
    "kto_title": "귤림서원",
    "contentid": "1960087",
    "contenttypeid": "12",
    "contenttype_label": "관광지",
    "cat1": "A02",
    "cat2": "A0201",
    "cat3": "A02010700",
    "addr1": "제주특별자치도 제주시 이도일동",
    "lat": 33.5060574951,
    "lng": 126.5276032002
  },
  {
    "kto_title": "귤향기 감귤체험농장",
    "contentid": "2765293",
    "contenttypeid": "12",
    "contenttype_label": "관광지",
    "cat1": "A02",
    "cat2": "A0203",
    "cat3": "A02030100",
    "addr1": "제주특별자치도 제주시 1100로 3118",
    "lat": 33.4649252707,
    "lng": 126.4857633249
  },
  {
    "kto_title": "금능석물원",
    "contentid": "127860",
    "contenttypeid": "12",
    "contenttype_label": "관광지",
    "cat1": "A01",
    "cat2": "A0101",
    "cat3": "A01010700",
    "addr1": "제주특별자치도 제주시 한림읍 한림로 176",
    "lat": 33.3854910837,
    "lng": 126.2267487402
  },
  {
    "kto_title": "금능포구",
    "contentid": "2946074",
    "contenttypeid": "12",
    "contenttype_label": "관광지",
    "cat1": "A02",
    "cat2": "A0203",
    "cat3": "A02030100",
    "addr1": "제주특별자치도 제주시 한림읍 금능리",
    "lat": 33.3902295795,
    "lng": 126.2351090186
  },
  {
    "kto_title": "금룡사(제주)",
    "contentid": "2027184",
    "contenttypeid": "12",
    "contenttype_label": "관광지",
    "cat1": "A02",
    "cat2": "A0201",
    "cat3": "A02010800",
    "addr1": "제주특별자치도 제주시 구좌읍 김녕로 148-11",
    "lat": 33.5539724801,
    "lng": 126.7536019143
  },
  {
    "kto_title": "금오름",
    "contentid": "129699",
    "contenttypeid": "12",
    "contenttype_label": "관광지",
    "cat1": "A01",
    "cat2": "A0101",
    "cat3": "A01010400",
    "addr1": "제주특별자치도 제주시 한림읍 금악리",
    "lat": 33.3555289743,
    "lng": 126.3059091921
  },
  {
    "kto_title": "금호리조트 제주",
    "contentid": "138185",
    "contenttypeid": "12",
    "contenttype_label": "관광지",
    "cat1": "A02",
    "cat2": "A0202",
    "cat3": "A02020200",
    "addr1": "제주특별자치도 서귀포시 남원읍 태위로 522-12",
    "lat": 33.2740331563,
    "lng": 126.703084902
  },
  {
    "kto_title": "금호리조트 제주아쿠아나",
    "contentid": "600584",
    "contenttypeid": "12",
    "contenttype_label": "관광지",
    "cat1": "A02",
    "cat2": "A0202",
    "cat3": "A02020600",
    "addr1": "제주특별자치도 서귀포시 남원읍 태위로 522-12",
    "lat": 33.2737526275,
    "lng": 126.7028238197
  },
  {
    "kto_title": "김녕 청굴물",
    "contentid": "2863615",
    "contenttypeid": "12",
    "contenttype_label": "관광지",
    "cat1": "A01",
    "cat2": "A0101",
    "cat3": "A01010500",
    "addr1": "제주특별자치도 제주시 구좌읍 김녕리",
    "lat": 33.5580358818,
    "lng": 126.7512770228
  },
  {
    "kto_title": "김녕미로공원",
    "contentid": "127046",
    "contenttypeid": "12",
    "contenttype_label": "관광지",
    "cat1": "A02",
    "cat2": "A0202",
    "cat3": "A02020700",
    "addr1": "제주특별자치도 제주시 구좌읍 만장굴길 122",
    "lat": 33.5363247299,
    "lng": 126.7720396084
  },
  {
    "kto_title": "김녕성세기해변 (김녕해수욕장)",
    "contentid": "129400",
    "contenttypeid": "12",
    "contenttype_label": "관광지",
    "cat1": "A01",
    "cat2": "A0101",
    "cat3": "A01011200",
    "addr1": "제주특별자치도 제주시 구좌읍 구좌해안로 237",
    "lat": 33.5566778337,
    "lng": 126.7596485488
  },
  {
    "kto_title": "김녕항",
    "contentid": "2781326",
    "contenttypeid": "12",
    "contenttype_label": "관광지",
    "cat1": "A01",
    "cat2": "A0101",
    "cat3": "A01011400",
    "addr1": "제주특별자치도 제주시 구좌읍 김녕항1길 50-13",
    "lat": 33.5580773628,
    "lng": 126.7400446641
  },
  {
    "kto_title": "나바론하늘길",
    "contentid": "2863882",
    "contenttypeid": "12",
    "contenttype_label": "관광지",
    "cat1": "A01",
    "cat2": "A0101",
    "cat3": "A01010500",
    "addr1": "제주특별자치도 제주시 추자면 대서리",
    "lat": 33.9612503055,
    "lng": 126.2866221544
  },
  {
    "kto_title": "낙천아홉굿마을",
    "contentid": "128444",
    "contenttypeid": "12",
    "contenttype_label": "관광지",
    "cat1": "A02",
    "cat2": "A0203",
    "cat3": "A02030100",
    "addr1": "제주특별자치도 제주시 한경면 낙수로 97",
    "lat": 33.3278474553,
    "lng": 126.226422273
  },
  {
    "kto_title": "낙타트레킹",
    "contentid": "2516416",
    "contenttypeid": "12",
    "contenttype_label": "관광지",
    "cat1": "A02",
    "cat2": "A0203",
    "cat3": "A02030100",
    "addr1": "제주특별자치도 서귀포시 표선면 번영로 2564-21",
    "lat": 33.4026812788,
    "lng": 126.7786837609
  },
  {
    "kto_title": "남원 큰엉해안",
    "contentid": "128795",
    "contenttypeid": "12",
    "contenttype_label": "관광지",
    "cat1": "A01",
    "cat2": "A0101",
    "cat3": "A01011100",
    "addr1": "제주특별자치도 서귀포시 남원읍 태위로 522-17",
    "lat": 33.2733776834,
    "lng": 126.7037237502
  },
  {
    "kto_title": "넥슨컴퓨터박물관",
    "contentid": "2472824",
    "contenttypeid": "12",
    "contenttype_label": "관광지",
    "cat1": "A02",
    "cat2": "A0204",
    "cat3": "A02040900",
    "addr1": "제주특별자치도 제주시 1100로 3198-8",
    "lat": 33.4721633588,
    "lng": 126.4857714937
  },
  {
    "kto_title": "노리매공원",
    "contentid": "2704456",
    "contenttypeid": "12",
    "contenttype_label": "관광지",
    "cat1": "A02",
    "cat2": "A0202",
    "cat3": "A02020700",
    "addr1": "제주특별자치도 서귀포시 대정읍 중산간서로 2260-15",
    "lat": 33.2825728584,
    "lng": 126.2873513183
  },
  {
    "kto_title": "노을해안로",
    "contentid": "2778890",
    "contenttypeid": "12",
    "contenttype_label": "관광지",
    "cat1": "A01",
    "cat2": "A0101",
    "cat3": "A01010500",
    "addr1": "제주특별자치도 서귀포시 대정읍 영락리",
    "lat": 33.2563744294,
    "lng": 126.2027620245
  },
  {
    "kto_title": "녹산로 유채꽃도로",
    "contentid": "1993734",
    "contenttypeid": "12",
    "contenttype_label": "관광지",
    "cat1": "A02",
    "cat2": "A0203",
    "cat3": "A02030100",
    "addr1": "제주특별자치도 서귀포시 표선면 가시로565번길 20",
    "lat": 33.3532755098,
    "lng": 126.771635499
  },
  {
    "kto_title": "논짓물",
    "contentid": "2740047",
    "contenttypeid": "12",
    "contenttype_label": "관광지",
    "cat1": "A01",
    "cat2": "A0101",
    "cat3": "A01011200",
    "addr1": "제주특별자치도 서귀포시 예래해안로 256 (하예동)",
    "lat": 33.2365767524,
    "lng": 126.3887657618
  },
  {
    "kto_title": "높은오름",
    "contentid": "1965800",
    "contenttypeid": "12",
    "contenttype_label": "관광지",
    "cat1": "A01",
    "cat2": "A0101",
    "cat3": "A01010400",
    "addr1": "제주특별자치도 제주시 구좌읍 송당리",
    "lat": 33.4573282459,
    "lng": 126.7928118419
  },
  {
    "kto_title": "느지리오름",
    "contentid": "2740127",
    "contenttypeid": "12",
    "contenttype_label": "관광지",
    "cat1": "A01",
    "cat2": "A0101",
    "cat3": "A01010400",
    "addr1": "제주특별자치도 제주시 한림읍 봉수대길 5",
    "lat": 33.3629135599,
    "lng": 126.2607962828
  },
  {
    "kto_title": "다려도",
    "contentid": "1928421",
    "contenttypeid": "12",
    "contenttype_label": "관광지",
    "cat1": "A01",
    "cat2": "A0101",
    "cat3": "A01011300",
    "addr1": "제주특별자치도 제주시 조천읍 북촌리",
    "lat": 33.5572322923,
    "lng": 126.6953319009
  },
  {
    "kto_title": "다이나믹 메이즈 제주",
    "contentid": "2418778",
    "contenttypeid": "12",
    "contenttype_label": "관광지",
    "cat1": "A02",
    "cat2": "A0202",
    "cat3": "A02020600",
    "addr1": "제주특별자치도 서귀포시 표선면 번영로 2644",
    "lat": 33.3990984383,
    "lng": 126.784749984
  },
  {
    "kto_title": "다희연",
    "contentid": "745449",
    "contenttypeid": "12",
    "contenttype_label": "관광지",
    "cat1": "A02",
    "cat2": "A0204",
    "cat3": "A02040800",
    "addr1": "제주특별자치도 제주시 조천읍 선교로 266-4",
    "lat": 33.4789799258,
    "lng": 126.700663785
  },
  {
    "kto_title": "달달미깡감귤밭",
    "contentid": "3027466",
    "contenttypeid": "12",
    "contenttype_label": "관광지",
    "cat1": "A02",
    "cat2": "A0203",
    "cat3": "A02030100",
    "addr1": "제주특별자치도 서귀포시 남원읍 하례로 377",
    "lat": 33.280172835,
    "lng": 126.6208391094
  },
  {
    "kto_title": "답다니수국밭",
    "contentid": "2854437",
    "contenttypeid": "12",
    "contenttype_label": "관광지",
    "cat1": "A01",
    "cat2": "A0101",
    "cat3": "A01010500",
    "addr1": "제주특별자치도 서귀포시 월평로50번길 17-30 (월평동)",
    "lat": 33.2438882462,
    "lng": 126.4642673842
  },
  {
    "kto_title": "답다니탑망대",
    "contentid": "2767790",
    "contenttypeid": "12",
    "contenttype_label": "관광지",
    "cat1": "A02",
    "cat2": "A0205",
    "cat3": "A02050600",
    "addr1": "제주특별자치도 제주시 우도면 연평리",
    "lat": 33.5249205816,
    "lng": 126.9526464263
  },
  {
    "kto_title": "당산봉",
    "contentid": "2704703",
    "contenttypeid": "12",
    "contenttype_label": "관광지",
    "cat1": "A01",
    "cat2": "A0101",
    "cat3": "A01010400",
    "addr1": "제주특별자치도 제주시 한경면 고산리",
    "lat": 33.3078071658,
    "lng": 126.1727968238
  },
  {
    "kto_title": "당케포구",
    "contentid": "2704447",
    "contenttypeid": "12",
    "contenttype_label": "관광지",
    "cat1": "A01",
    "cat2": "A0101",
    "cat3": "A01011400",
    "addr1": "제주특별자치도 서귀포시 표선면 민속해안로 566-1",
    "lat": 33.3247853896,
    "lng": 126.8451186744
  },
  {
    "kto_title": "대정향교",
    "contentid": "1621175",
    "contenttypeid": "12",
    "contenttype_label": "관광지",
    "cat1": "A02",
    "cat2": "A0201",
    "cat3": "A02010700",
    "addr1": "제주특별자치도 서귀포시 안덕면 향교로 165-17",
    "lat": 33.2392193306,
    "lng": 126.2884466303
  },
  {
    "kto_title": "대평포구",
    "contentid": "2789609",
    "contenttypeid": "12",
    "contenttype_label": "관광지",
    "cat1": "A01",
    "cat2": "A0101",
    "cat3": "A01011400",
    "addr1": "제주특별자치도 서귀포시 안덕면 창천리 914-5",
    "lat": 33.2365152273,
    "lng": 126.3620208614
  },
  {
    "kto_title": "대포주상절리",
    "contentid": "127053",
    "contenttypeid": "12",
    "contenttype_label": "관광지",
    "cat1": "A01",
    "cat2": "A0101",
    "cat3": "A01011100",
    "addr1": "제주특별자치도 서귀포시 이어도로 36-24 (중문동)",
    "lat": 33.2389326421,
    "lng": 126.4264985478
  },
  {
    "kto_title": "대포포구",
    "contentid": "2738714",
    "contenttypeid": "12",
    "contenttype_label": "관광지",
    "cat1": "A01",
    "cat2": "A0101",
    "cat3": "A01011400",
    "addr1": "제주특별자치도 서귀포시 대포동",
    "lat": 33.2377274199,
    "lng": 126.4392113608
  },
  {
    "kto_title": "대포해안",
    "contentid": "2781422",
    "contenttypeid": "12",
    "contenttype_label": "관광지",
    "cat1": "A01",
    "cat2": "A0101",
    "cat3": "A01011100",
    "addr1": "제주특별자치도 서귀포시 이어도로 36-30",
    "lat": 33.2380216246,
    "lng": 126.4260597168
  },
  {
    "kto_title": "더마파크",
    "contentid": "665594",
    "contenttypeid": "12",
    "contenttype_label": "관광지",
    "cat1": "A02",
    "cat2": "A0202",
    "cat3": "A02020600",
    "addr1": "제주특별자치도 제주시 한림읍 월림7길 155",
    "lat": 33.3549530518,
    "lng": 126.2430896662
  },
  {
    "kto_title": "도너리오름",
    "contentid": "1928430",
    "contenttypeid": "12",
    "contenttype_label": "관광지",
    "cat1": "A01",
    "cat2": "A0101",
    "cat3": "A01010400",
    "addr1": "제주특별자치도 서귀포시 안덕면 한창로 775",
    "lat": 33.3243994944,
    "lng": 126.332088168
  },
  {
    "kto_title": "도두봉",
    "contentid": "2738665",
    "contenttypeid": "12",
    "contenttype_label": "관광지",
    "cat1": "A01",
    "cat2": "A0101",
    "cat3": "A01010400",
    "addr1": "제주특별자치도 제주시 도두항길 4-17 (도두일동)",
    "lat": 33.5067925638,
    "lng": 126.4672362102
  },
  {
    "kto_title": "도두항",
    "contentid": "2794659",
    "contenttypeid": "12",
    "contenttype_label": "관광지",
    "cat1": "A01",
    "cat2": "A0101",
    "cat3": "A01011400",
    "addr1": "제주특별자치도 제주시 도공로 2",
    "lat": 33.5061675974,
    "lng": 126.4650003076
  },
  {
    "kto_title": "도련 감귤나무 숲",
    "contentid": "2759624",
    "contenttypeid": "12",
    "contenttype_label": "관광지",
    "cat1": "A02",
    "cat2": "A0203",
    "cat3": "A02030400",
    "addr1": "제주특별자치도 제주시 도련남3길 81",
    "lat": 33.5003118593,
    "lng": 126.5871453787
  },
  {
    "kto_title": "도리미오름",
    "contentid": "1899959",
    "contenttypeid": "12",
    "contenttype_label": "관광지",
    "cat1": "A01",
    "cat2": "A0101",
    "cat3": "A01010400",
    "addr1": "제주특별자치도 제주시 구좌읍 송당리",
    "lat": 33.4315668324,
    "lng": 126.7697172117
  },
  {
    "kto_title": "도치돌 알파카목장",
    "contentid": "2751854",
    "contenttypeid": "12",
    "contenttype_label": "관광지",
    "cat1": "A02",
    "cat2": "A0203",
    "cat3": "A02030100",
    "addr1": "제주특별자치도 제주시 애월읍 도치돌길 303",
    "lat": 33.4097517134,
    "lng": 126.366772133
  },
  {
    "kto_title": "도치돌목장",
    "contentid": "3112043",
    "contenttypeid": "12",
    "contenttype_label": "관광지",
    "cat1": "A02",
    "cat2": "A0203",
    "cat3": "A02030100",
    "addr1": "제주특별자치도 제주시 애월읍 도치돌길 303",
    "lat": 33.4097517134,
    "lng": 126.366772133
  },
  {
    "kto_title": "돈내코 원앙폭포",
    "contentid": "126441",
    "contenttypeid": "12",
    "contenttype_label": "관광지",
    "cat1": "A01",
    "cat2": "A0101",
    "cat3": "A01010900",
    "addr1": "제주특별자치도 서귀포시 돈내코로 137",
    "lat": 33.3005255267,
    "lng": 126.5820170154
  },
  {
    "kto_title": "돌하르방미술관",
    "contentid": "128777",
    "contenttypeid": "12",
    "contenttype_label": "관광지",
    "cat1": "A02",
    "cat2": "A0202",
    "cat3": "A02020700",
    "addr1": "제주특별자치도 제주시 조천읍 북촌서1길 70",
    "lat": 33.5396035971,
    "lng": 126.6896605755
  },
  {
    "kto_title": "동거문오름",
    "contentid": "1890177",
    "contenttypeid": "12",
    "contenttype_label": "관광지",
    "cat1": "A01",
    "cat2": "A0101",
    "cat3": "A01010400",
    "addr1": "제주특별자치도 제주시 구좌읍 종달리 산70",
    "lat": 33.4480572654,
    "lng": 126.8063081059
  },
  {
    "kto_title": "동광리농촌체험마을",
    "contentid": "2390111",
    "contenttypeid": "12",
    "contenttype_label": "관광지",
    "cat1": "A02",
    "cat2": "A0203",
    "cat3": "A02030100",
    "addr1": "제주특별자치도 서귀포시 안덕면 동광로 126",
    "lat": 33.3076403586,
    "lng": 126.3399267501
  },
  {
    "kto_title": "동백포레스트",
    "contentid": "2806043",
    "contenttypeid": "12",
    "contenttype_label": "관광지",
    "cat1": "A01",
    "cat2": "A0101",
    "cat3": "A01010700",
    "addr1": "제주특별자치도 서귀포시 남원읍 생기악로 53-38",
    "lat": 33.300348631,
    "lng": 126.6362150996
  },
  {
    "kto_title": "동일리포구",
    "contentid": "2738761",
    "contenttypeid": "12",
    "contenttype_label": "관광지",
    "cat1": "A01",
    "cat2": "A0101",
    "cat3": "A01011400",
    "addr1": "제주특별자치도 서귀포시 대정읍 동일하모로98번길 14-32",
    "lat": 33.225489535,
    "lng": 126.2401122413
  },
  {
    "kto_title": "두맹이골목",
    "contentid": "1906211",
    "contenttypeid": "12",
    "contenttype_label": "관광지",
    "cat1": "A02",
    "cat2": "A0203",
    "cat3": "A02030600",
    "addr1": "제주특별자치도 제주시 동문로16길 17-4 (일도이동)",
    "lat": 33.5120458378,
    "lng": 126.5349218725
  },
  {
    "kto_title": "둔지봉",
    "contentid": "1933208",
    "contenttypeid": "12",
    "contenttype_label": "관광지",
    "cat1": "A01",
    "cat2": "A0101",
    "cat3": "A01010400",
    "addr1": "제주특별자치도 제주시 구좌읍 한동리",
    "lat": 33.5012456847,
    "lng": 126.7973021108
  },
  {
    "kto_title": "뒤굽은이오름",
    "contentid": "1890872",
    "contenttypeid": "12",
    "contenttype_label": "관광지",
    "cat1": "A01",
    "cat2": "A0101",
    "cat3": "A01010400",
    "addr1": "제주특별자치도 제주시 구좌읍 송당리",
    "lat": 33.479730911,
    "lng": 126.767113557
  },
  {
    "kto_title": "따라비 오름",
    "contentid": "572968",
    "contenttypeid": "12",
    "contenttype_label": "관광지",
    "cat1": "A01",
    "cat2": "A0101",
    "cat3": "A01010400",
    "addr1": "제주특별자치도 서귀포시 표선면 가시리",
    "lat": 33.3859437827,
    "lng": 126.750331045
  },
  {
    "kto_title": "루나폴",
    "contentid": "2940981",
    "contenttypeid": "12",
    "contenttype_label": "관광지",
    "cat1": "A02",
    "cat2": "A0202",
    "cat3": "A02020600",
    "addr1": "제주특별자치도 서귀포시 일주서로 1836",
    "lat": 33.2514073999,
    "lng": 126.3219962251
  },
  {
    "kto_title": "마라도",
    "contentid": "126450",
    "contenttypeid": "12",
    "contenttype_label": "관광지",
    "cat1": "A01",
    "cat2": "A0101",
    "cat3": "A01011300",
    "addr1": "제주특별자치도 서귀포시 대정읍 마라로101번길 46",
    "lat": 33.1186461893,
    "lng": 126.2671011468
  },
  {
    "kto_title": "마라도 가파도 정기여객선",
    "contentid": "2621914",
    "contenttypeid": "12",
    "contenttype_label": "관광지",
    "cat1": "A02",
    "cat2": "A0202",
    "cat3": "A02020800",
    "addr1": "제주특별자치도 서귀포시 대정읍 최남단해안로 120",
    "lat": 33.210094298,
    "lng": 126.2583887734
  },
  {
    "kto_title": "마라도 등대",
    "contentid": "129145",
    "contenttypeid": "12",
    "contenttype_label": "관광지",
    "cat1": "A01",
    "cat2": "A0101",
    "cat3": "A01011600",
    "addr1": "제주특별자치도 서귀포시 대정읍 마라로 (165, 마라도항로표지관리소)",
    "lat": 33.1170102919,
    "lng": 126.2692287758
  },
  {
    "kto_title": "마라도가는여객선",
    "contentid": "128802",
    "contenttypeid": "12",
    "contenttype_label": "관광지",
    "cat1": "A02",
    "cat2": "A0202",
    "cat3": "A02020800",
    "addr1": "제주특별자치도 서귀포시 대정읍 송악관광로 424",
    "lat": 33.2074256509,
    "lng": 126.2905304868
  },
  {
    "kto_title": "맥파이 브루어리",
    "contentid": "2469467",
    "contenttypeid": "12",
    "contenttype_label": "관광지",
    "cat1": "A02",
    "cat2": "A0204",
    "cat3": "A02040600",
    "addr1": "제주특별자치도 제주시 동회천1길 23",
    "lat": 33.5031897997,
    "lng": 126.6172288105
  },
  {
    "kto_title": "명월대",
    "contentid": "127909",
    "contenttypeid": "12",
    "contenttype_label": "관광지",
    "cat1": "A02",
    "cat2": "A0201",
    "cat3": "A02010700",
    "addr1": "제주특별자치도 제주시 한림읍 명월리",
    "lat": 33.3890302004,
    "lng": 126.2662091182
  },
  {
    "kto_title": "명월성지",
    "contentid": "2704407",
    "contenttypeid": "12",
    "contenttype_label": "관광지",
    "cat1": "A02",
    "cat2": "A0201",
    "cat3": "A02010200",
    "addr1": "제주특별자치도 제주시 한림읍 명월리 2236",
    "lat": 33.4007843643,
    "lng": 126.2604038055
  },
  {
    "kto_title": "모구리오름",
    "contentid": "1926601",
    "contenttypeid": "12",
    "contenttype_label": "관광지",
    "cat1": "A01",
    "cat2": "A0101",
    "cat3": "A01010400",
    "addr1": "제주특별자치도 서귀포시 성산읍 난산리",
    "lat": 33.4081287094,
    "lng": 126.8290126084
  },
  {
    "kto_title": "모지오름",
    "contentid": "1928045",
    "contenttypeid": "12",
    "contenttype_label": "관광지",
    "cat1": "A01",
    "cat2": "A0101",
    "cat3": "A01010400",
    "addr1": "제주특별자치도 서귀포시 표선면 성읍리",
    "lat": 33.3962624499,
    "lng": 126.7728760781
  },
  {
    "kto_title": "모충사",
    "contentid": "126459",
    "contenttypeid": "12",
    "contenttype_label": "관광지",
    "cat1": "A02",
    "cat2": "A0201",
    "cat3": "A02010700",
    "addr1": "제주특별자치도 제주시 건입동",
    "lat": 33.5161427755,
    "lng": 126.5455208585
  },
  {
    "kto_title": "무수천",
    "contentid": "126467",
    "contenttypeid": "12",
    "contenttype_label": "관광지",
    "cat1": "A01",
    "cat2": "A0101",
    "cat3": "A01010900",
    "addr1": "제주특별자치도 제주시 애월읍 무수천길",
    "lat": 33.4627665614,
    "lng": 126.4470472947
  },
  {
    "kto_title": "물드리네",
    "contentid": "879633",
    "contenttypeid": "12",
    "contenttype_label": "관광지",
    "cat1": "A02",
    "cat2": "A0203",
    "cat3": "A02030200",
    "addr1": "제주특별자치도 제주시 한경면 낙산로 4-28",
    "lat": 33.3227424721,
    "lng": 126.2269445635
  },
  {
    "kto_title": "물뫼힐링팜",
    "contentid": "2705296",
    "contenttypeid": "12",
    "contenttype_label": "관광지",
    "cat1": "A02",
    "cat2": "A0203",
    "cat3": "A02030400",
    "addr1": "제주특별자치도 제주시 애월읍 예원로 51",
    "lat": 33.4642655959,
    "lng": 126.3965683162
  },
  {
    "kto_title": "물영아리오름",
    "contentid": "2433925",
    "contenttypeid": "12",
    "contenttype_label": "관광지",
    "cat1": "A01",
    "cat2": "A0101",
    "cat3": "A01010400",
    "addr1": "제주특별자치도 서귀포시 남원읍 태수로 552",
    "lat": 33.3268525509,
    "lng": 126.716996389
  },
  {
    "kto_title": "미깡창고",
    "contentid": "3037417",
    "contenttypeid": "12",
    "contenttype_label": "관광지",
    "cat1": "A02",
    "cat2": "A0203",
    "cat3": "A02030100",
    "addr1": "제주특별자치도 제주시 애월읍 중산간서로 6710-1",
    "lat": 33.4605140048,
    "lng": 126.4452558345
  },
  {
    "kto_title": "미악산",
    "contentid": "2765223",
    "contenttypeid": "12",
    "contenttype_label": "관광지",
    "cat1": "A01",
    "cat2": "A0101",
    "cat3": "A01010400",
    "addr1": "제주특별자치도 서귀포시 인정오름로 387-63",
    "lat": 33.3005945221,
    "lng": 126.5542194241
  },
  {
    "kto_title": "미천굴",
    "contentid": "2738721",
    "contenttypeid": "12",
    "contenttype_label": "관광지",
    "cat1": "A01",
    "cat2": "A0101",
    "cat3": "A01011900",
    "addr1": "제주특별자치도 서귀포시 성산읍 중산간동로 4150-30",
    "lat": 33.3833177616,
    "lng": 126.8415509789
  },
  {
    "kto_title": "바늘오름",
    "contentid": "1933217",
    "contenttypeid": "12",
    "contenttype_label": "관광지",
    "cat1": "A01",
    "cat2": "A0101",
    "cat3": "A01010400",
    "addr1": "제주특별자치도 제주시 조천읍 교래리",
    "lat": 33.4537041957,
    "lng": 126.6540100777
  },
  {
    "kto_title": "바리메오름",
    "contentid": "2765227",
    "contenttypeid": "12",
    "contenttype_label": "관광지",
    "cat1": "A01",
    "cat2": "A0101",
    "cat3": "A01010400",
    "addr1": "제주특별자치도 제주시 애월읍 어음리 산1",
    "lat": 33.3930648051,
    "lng": 126.3752995443
  },
  {
    "kto_title": "박수기정",
    "contentid": "2738763",
    "contenttypeid": "12",
    "contenttype_label": "관광지",
    "cat1": "A01",
    "cat2": "A0101",
    "cat3": "A01011100",
    "addr1": "제주특별자치도 서귀포시 안덕면 난드르로 90-25",
    "lat": 33.2371845468,
    "lng": 126.3587516855
  },
  {
    "kto_title": "발자국화석공원",
    "contentid": "2715648",
    "contenttypeid": "12",
    "contenttype_label": "관광지",
    "cat1": "A01",
    "cat2": "A0102",
    "cat3": "A01020200",
    "addr1": "제주특별자치도 서귀포시 대정읍 형제해안로 192",
    "lat": 33.2173857035,
    "lng": 126.2931467063
  },
  {
    "kto_title": "방사탑(제주)",
    "contentid": "129402",
    "contenttypeid": "12",
    "contenttype_label": "관광지",
    "cat1": "A02",
    "cat2": "A0205",
    "cat3": "A02050200",
    "addr1": "제주특별자치도 제주시 조천읍 신흥로1길 25",
    "lat": 33.54749654,
    "lng": 126.650530461
  },
  {
    "kto_title": "방선문",
    "contentid": "126468",
    "contenttypeid": "12",
    "contenttype_label": "관광지",
    "cat1": "A01",
    "cat2": "A0101",
    "cat3": "A01010900",
    "addr1": "제주특별자치도 제주시 오라이동",
    "lat": 33.4542936092,
    "lng": 126.5169053039
  },
  {
    "kto_title": "방주교회",
    "contentid": "2663244",
    "contenttypeid": "12",
    "contenttype_label": "관광지",
    "cat1": "A02",
    "cat2": "A0201",
    "cat3": "A02010900",
    "addr1": "제주특별자치도 서귀포시 안덕면 산록남로762번길 113",
    "lat": 33.3051886051,
    "lng": 126.3877920933
  },
  {
    "kto_title": "백약이오름",
    "contentid": "2731801",
    "contenttypeid": "12",
    "contenttype_label": "관광지",
    "cat1": "A01",
    "cat2": "A0101",
    "cat3": "A01010400",
    "addr1": "제주특별자치도 서귀포시 표선면 성읍리 산1",
    "lat": 33.4372359797,
    "lng": 126.7901986394
  },
  {
    "kto_title": "백제사",
    "contentid": "2027203",
    "contenttypeid": "12",
    "contenttype_label": "관광지",
    "cat1": "A02",
    "cat2": "A0201",
    "cat3": "A02010800",
    "addr1": "제주특별자치도 제주시 애월읍 광령남6길 54",
    "lat": 33.4488149673,
    "lng": 126.4243079199
  },
  {
    "kto_title": "법화사",
    "contentid": "309943",
    "contenttypeid": "12",
    "contenttype_label": "관광지",
    "cat1": "A02",
    "cat2": "A0201",
    "cat3": "A02010800",
    "addr1": "제주특별자치도 서귀포시 하원북로35번길 15-28 법화사",
    "lat": 33.2652385684,
    "lng": 126.4580035612
  },
  {
    "kto_title": "법환포구",
    "contentid": "2738728",
    "contenttypeid": "12",
    "contenttype_label": "관광지",
    "cat1": "A01",
    "cat2": "A0101",
    "cat3": "A01011400",
    "addr1": "제주특별자치도 서귀포시 법환동",
    "lat": 33.2372286829,
    "lng": 126.515710296
  },
  {
    "kto_title": "베릿네오름",
    "contentid": "2796715",
    "contenttypeid": "12",
    "contenttype_label": "관광지",
    "cat1": "A01",
    "cat2": "A0101",
    "cat3": "A01010400",
    "addr1": "제주특별자치도 서귀포시 중문동 2314-2",
    "lat": 33.2474788502,
    "lng": 126.4220098576
  },
  {
    "kto_title": "벵가스테이",
    "contentid": "1882274",
    "contenttypeid": "12",
    "contenttype_label": "관광지",
    "cat1": "A02",
    "cat2": "A0202",
    "cat3": "A02020200",
    "addr1": "제주특별자치도 서귀포시 성산읍 일주동로4120번길 23-20",
    "lat": 33.4594882342,
    "lng": 126.9100849593
  },
  {
    "kto_title": "별도봉",
    "contentid": "1069292",
    "contenttypeid": "12",
    "contenttype_label": "관광지",
    "cat1": "A01",
    "cat2": "A0101",
    "cat3": "A01010400",
    "addr1": "제주특별자치도 제주시 화북일동",
    "lat": 33.5192286663,
    "lng": 126.5531117946
  },
  {
    "kto_title": "별방진",
    "contentid": "128796",
    "contenttypeid": "12",
    "contenttype_label": "관광지",
    "cat1": "A02",
    "cat2": "A0201",
    "cat3": "A02010200",
    "addr1": "제주특별자치도 제주시 구좌읍 하도리 3354",
    "lat": 33.5262082208,
    "lng": 126.8843912035
  },
  {
    "kto_title": "보덕사(제주)",
    "contentid": "315926",
    "contenttypeid": "12",
    "contenttype_label": "관광지",
    "cat1": "A02",
    "cat2": "A0201",
    "cat3": "A02010800",
    "addr1": "제주특별자치도 제주시 독짓골8길 26",
    "lat": 33.4917036061,
    "lng": 126.5324919902
  },
  {
    "kto_title": "보림사(제주)",
    "contentid": "316058",
    "contenttypeid": "12",
    "contenttype_label": "관광지",
    "cat1": "A02",
    "cat2": "A0201",
    "cat3": "A02010800",
    "addr1": "제주특별자치도 제주시 사라봉동길 61",
    "lat": 33.5175093027,
    "lng": 126.5462929822
  },
  {
    "kto_title": "보목포구",
    "contentid": "2738742",
    "contenttypeid": "12",
    "contenttype_label": "관광지",
    "cat1": "A01",
    "cat2": "A0101",
    "cat3": "A01011400",
    "addr1": "제주특별자치도 서귀포시 보목포로 46 (보목동)",
    "lat": 33.2392465705,
    "lng": 126.606774583
  },
  {
    "kto_title": "복신미륵",
    "contentid": "129403",
    "contenttypeid": "12",
    "contenttype_label": "관광지",
    "cat1": "A02",
    "cat2": "A0201",
    "cat3": "A02010700",
    "addr1": "제주특별자치도 제주시 동한두기길 7-6 (용담일동)",
    "lat": 33.5155645816,
    "lng": 126.5154401529
  },
  {
    "kto_title": "북촌리 4·3길",
    "contentid": "2661523",
    "contenttypeid": "12",
    "contenttype_label": "관광지",
    "cat1": "A01",
    "cat2": "A0101",
    "cat3": "A01010500",
    "addr1": "제주특별자치도 제주시 조천읍 북촌3길 3",
    "lat": 33.546052868,
    "lng": 126.6886966222
  },
  {
    "kto_title": "불탑사(제주)",
    "contentid": "317558",
    "contenttypeid": "12",
    "contenttype_label": "관광지",
    "cat1": "A02",
    "cat2": "A0201",
    "cat3": "A02010800",
    "addr1": "제주특별자치도 제주시 원당로16길 41",
    "lat": 33.5291588377,
    "lng": 126.5978743444
  },
  {
    "kto_title": "붉은오름자연휴양림",
    "contentid": "1898484",
    "contenttypeid": "12",
    "contenttype_label": "관광지",
    "cat1": "A01",
    "cat2": "A0101",
    "cat3": "A01010600",
    "addr1": "제주특별자치도 서귀포시 표선면 남조로 1487-73",
    "lat": 33.3952748674,
    "lng": 126.6742707606
  },
  {
    "kto_title": "비밀의 숲",
    "contentid": "2779449",
    "contenttypeid": "12",
    "contenttype_label": "관광지",
    "cat1": "A01",
    "cat2": "A0101",
    "cat3": "A01010400",
    "addr1": "제주특별자치도 제주시 구좌읍 송당리 2173",
    "lat": 33.4537780343,
    "lng": 126.7552818445
  },
  {
    "kto_title": "비스타리조트",
    "contentid": "2766781",
    "contenttypeid": "12",
    "contenttype_label": "관광지",
    "cat1": "A02",
    "cat2": "A0202",
    "cat3": "A02020200",
    "addr1": "제주특별자치도 제주시 서해안로 74 (이호일동)",
    "lat": 33.5030761554,
    "lng": 126.457595466
  },
  {
    "kto_title": "비양도",
    "contentid": "127529",
    "contenttypeid": "12",
    "contenttype_label": "관광지",
    "cat1": "A01",
    "cat2": "A0101",
    "cat3": "A01011300",
    "addr1": "제주특별자치도 제주시 한림읍 협재리",
    "lat": 33.4096328399,
    "lng": 126.2257094042
  },
  {
    "kto_title": "비양봉",
    "contentid": "1895633",
    "contenttypeid": "12",
    "contenttype_label": "관광지",
    "cat1": "A01",
    "cat2": "A0101",
    "cat3": "A01010400",
    "addr1": "제주특별자치도 제주시 한림읍 협재리",
    "lat": 33.4085746459,
    "lng": 126.2271120833
  },
  {
    "kto_title": "비체올린",
    "contentid": "2674014",
    "contenttypeid": "12",
    "contenttype_label": "관광지",
    "cat1": "A02",
    "cat2": "A0203",
    "cat3": "A02030400",
    "addr1": "제주특별자치도 제주시 한경면 판조로 253-6",
    "lat": 33.3494560488,
    "lng": 126.2182391712
  },
  {
    "kto_title": "사계해변",
    "contentid": "2715650",
    "contenttypeid": "12",
    "contenttype_label": "관광지",
    "cat1": "A01",
    "cat2": "A0101",
    "cat3": "A01011200",
    "addr1": "제주특별자치도 서귀포시 안덕면 사계리",
    "lat": 33.2282014158,
    "lng": 126.3084395842
  },
  {
    "kto_title": "사라봉",
    "contentid": "1069144",
    "contenttypeid": "12",
    "contenttype_label": "관광지",
    "cat1": "A01",
    "cat2": "A0101",
    "cat3": "A01010400",
    "addr1": "제주특별자치도 제주시 사라봉동길 61",
    "lat": 33.5176259547,
    "lng": 126.5461513246
  },
  {
    "kto_title": "사라봉(모충사) 의병항쟁기념탑",
    "contentid": "127055",
    "contenttypeid": "12",
    "contenttype_label": "관광지",
    "cat1": "A02",
    "cat2": "A0205",
    "cat3": "A02050200",
    "addr1": "제주특별자치도 제주시 사라봉길 75",
    "lat": 33.5161733522,
    "lng": 126.5470457247
  },
  {
    "kto_title": "사라봉공원",
    "contentid": "126454",
    "contenttypeid": "12",
    "contenttype_label": "관광지",
    "cat1": "A02",
    "cat2": "A0202",
    "cat3": "A02020700",
    "addr1": "제주특별자치도 제주시 사라봉길 75 (건입동)",
    "lat": 33.5160372422,
    "lng": 126.5462013564
  },
  {
    "kto_title": "사라오름",
    "contentid": "1215292",
    "contenttypeid": "12",
    "contenttype_label": "관광지",
    "cat1": "A01",
    "cat2": "A0101",
    "cat3": "A01010400",
    "addr1": "제주특별자치도 서귀포시 남원읍 신례리 산 2-1",
    "lat": 33.3642521899,
    "lng": 126.6050441353
  },
  {
    "kto_title": "사수항",
    "contentid": "2794667",
    "contenttypeid": "12",
    "contenttype_label": "관광지",
    "cat1": "A01",
    "cat2": "A0101",
    "cat3": "A01011400",
    "addr1": "제주특별자치도 제주시 서해안로 319 (도두이동)",
    "lat": 33.5096313338,
    "lng": 126.4795239664
  },
  {
    "kto_title": "산굼부리",
    "contentid": "126474",
    "contenttypeid": "12",
    "contenttype_label": "관광지",
    "cat1": "A01",
    "cat2": "A0101",
    "cat3": "A01010400",
    "addr1": "제주특별자치도 제주시 조천읍 비자림로 768",
    "lat": 33.4323127375,
    "lng": 126.6928183084
  },
  {
    "kto_title": "산방굴사(제주)",
    "contentid": "126457",
    "contenttypeid": "12",
    "contenttype_label": "관광지",
    "cat1": "A02",
    "cat2": "A0201",
    "cat3": "A02010800",
    "addr1": "제주특별자치도 서귀포시 안덕면 산방로 218-12",
    "lat": 33.2372560486,
    "lng": 126.3133472902
  },
  {
    "kto_title": "산방산 유람선",
    "contentid": "2740056",
    "contenttypeid": "12",
    "contenttype_label": "관광지",
    "cat1": "A02",
    "cat2": "A0202",
    "cat3": "A02020800",
    "addr1": "제주특별자치도 서귀포시 안덕면 화순해안로106번길 16",
    "lat": 33.2370675236,
    "lng": 126.3352176189
  },
  {
    "kto_title": "산양큰엉곶",
    "contentid": "2948051",
    "contenttypeid": "12",
    "contenttype_label": "관광지",
    "cat1": "A01",
    "cat2": "A0101",
    "cat3": "A01010400",
    "addr1": "제주특별자치도 제주시 한경면 청수리",
    "lat": 33.29072971,
    "lng": 126.2503099104
  },
  {
    "kto_title": "산지 등대",
    "contentid": "129148",
    "contenttypeid": "12",
    "contenttype_label": "관광지",
    "cat1": "A01",
    "cat2": "A0101",
    "cat3": "A01011600",
    "addr1": "제주특별자치도 제주시 사라봉동길 108-1",
    "lat": 33.5209144715,
    "lng": 126.5456624039
  },
  {
    "kto_title": "산천단곰솔",
    "contentid": "126461",
    "contenttypeid": "12",
    "contenttype_label": "관광지",
    "cat1": "A01",
    "cat2": "A0102",
    "cat3": "A01020100",
    "addr1": "제주특별자치도 제주시 516로 3041-24",
    "lat": 33.4476699442,
    "lng": 126.5547604989
  },
  {
    "kto_title": "삼매봉",
    "contentid": "127049",
    "contenttypeid": "12",
    "contenttype_label": "관광지",
    "cat1": "A02",
    "cat2": "A0202",
    "cat3": "A02020700",
    "addr1": "제주특별자치도 서귀포시 서홍동",
    "lat": 33.2439117723,
    "lng": 126.5468824444
  },
  {
    "kto_title": "삼무공원",
    "contentid": "2853484",
    "contenttypeid": "12",
    "contenttype_label": "관광지",
    "cat1": "A02",
    "cat2": "A0202",
    "cat3": "A02020700",
    "addr1": "제주특별자치도 제주시 신대로10길 48-9 (연동)",
    "lat": 33.4914863265,
    "lng": 126.4924649191
  },
  {
    "kto_title": "삼양해수욕장",
    "contentid": "129401",
    "contenttypeid": "12",
    "contenttype_label": "관광지",
    "cat1": "A01",
    "cat2": "A0101",
    "cat3": "A01011200",
    "addr1": "제주특별자치도 제주시 삼양이동",
    "lat": 33.5255284819,
    "lng": 126.5852560795
  },
  {
    "kto_title": "삼양해안도로",
    "contentid": "2765248",
    "contenttypeid": "12",
    "contenttype_label": "관광지",
    "cat1": "A01",
    "cat2": "A0101",
    "cat3": "A01010500",
    "addr1": "제주특별자치도 제주시 삼양삼동 2582-1",
    "lat": 33.525339511,
    "lng": 126.5788233094
  },
  {
    "kto_title": "삼의악오름",
    "contentid": "1941153",
    "contenttypeid": "12",
    "contenttype_label": "관광지",
    "cat1": "A01",
    "cat2": "A0101",
    "cat3": "A01010400",
    "addr1": "제주특별자치도 제주시 아라일동",
    "lat": 33.4398681468,
    "lng": 126.5620989268
  },
  {
    "kto_title": "상가리야자숲",
    "contentid": "2847726",
    "contenttypeid": "12",
    "contenttype_label": "관광지",
    "cat1": "A01",
    "cat2": "A0101",
    "cat3": "A01010400",
    "addr1": "제주특별자치도 제주시 고하상로 326",
    "lat": 33.4394649613,
    "lng": 126.3584888528
  },
  {
    "kto_title": "상효원수목원",
    "contentid": "2738734",
    "contenttypeid": "12",
    "contenttype_label": "관광지",
    "cat1": "A01",
    "cat2": "A0101",
    "cat3": "A01010700",
    "addr1": "제주특별자치도 서귀포시 산록남로 2847-37",
    "lat": 33.3072442933,
    "lng": 126.5860192949
  },
  {
    "kto_title": "새미은총의동산",
    "contentid": "2765252",
    "contenttypeid": "12",
    "contenttype_label": "관광지",
    "cat1": "A02",
    "cat2": "A0201",
    "cat3": "A02010900",
    "addr1": "제주특별자치도 제주시 한림읍 새미소길 15",
    "lat": 33.3483050542,
    "lng": 126.3237716904
  },
  {
    "kto_title": "새별오름",
    "contentid": "572973",
    "contenttypeid": "12",
    "contenttype_label": "관광지",
    "cat1": "A01",
    "cat2": "A0101",
    "cat3": "A01010400",
    "addr1": "제주특별자치도 제주시 애월읍 봉성리 산 59-8",
    "lat": 33.3673645815,
    "lng": 126.3570489276
  },
  {
    "kto_title": "새별프렌즈",
    "contentid": "2742344",
    "contenttypeid": "12",
    "contenttype_label": "관광지",
    "cat1": "A02",
    "cat2": "A0203",
    "cat3": "A02030100",
    "addr1": "제주특별자치도 제주시 애월읍 평화로 1529",
    "lat": 33.3615847697,
    "lng": 126.3636734821
  },
  {
    "kto_title": "새섬공원",
    "contentid": "2767627",
    "contenttypeid": "12",
    "contenttype_label": "관광지",
    "cat1": "A02",
    "cat2": "A0202",
    "cat3": "A02020700",
    "addr1": "제주특별자치도 서귀포시 남성중로 43",
    "lat": 33.2397485318,
    "lng": 126.5588092829
  },
  {
    "kto_title": "새신오름",
    "contentid": "1945414",
    "contenttypeid": "12",
    "contenttype_label": "관광지",
    "cat1": "A01",
    "cat2": "A0101",
    "cat3": "A01010400",
    "addr1": "제주특별자치도 제주시 한경면 청수리",
    "lat": 33.2978565065,
    "lng": 126.2379580475
  },
  {
    "kto_title": "새연교",
    "contentid": "879234",
    "contenttypeid": "12",
    "contenttype_label": "관광지",
    "cat1": "A02",
    "cat2": "A0205",
    "cat3": "A02050100",
    "addr1": "제주특별자치도 서귀포시 서홍동",
    "lat": 33.2378293118,
    "lng": 126.559612034
  },
  {
    "kto_title": "샤이니숲길",
    "contentid": "2847703",
    "contenttypeid": "12",
    "contenttype_label": "관광지",
    "cat1": "A01",
    "cat2": "A0101",
    "cat3": "A01010400",
    "addr1": "제주특별자치도 제주시 조천읍 교래리",
    "lat": 33.4273100152,
    "lng": 126.6617211206
  },
  {
    "kto_title": "서건도",
    "contentid": "1936039",
    "contenttypeid": "12",
    "contenttype_label": "관광지",
    "cat1": "A01",
    "cat2": "A0101",
    "cat3": "A01011300",
    "addr1": "제주특별자치도 서귀포시 강정동",
    "lat": 33.2540292433,
    "lng": 126.4927119133
  },
  {
    "kto_title": "서광차밭",
    "contentid": "128150",
    "contenttypeid": "12",
    "contenttype_label": "관광지",
    "cat1": "A02",
    "cat2": "A0204",
    "cat3": "A02040800",
    "addr1": "제주특별자치도 서귀포시 안덕면 신화역사로 15",
    "lat": 33.3059564173,
    "lng": 126.289381178
  },
  {
    "kto_title": "서귀다원",
    "contentid": "2723689",
    "contenttypeid": "12",
    "contenttype_label": "관광지",
    "cat1": "A02",
    "cat2": "A0204",
    "cat3": "A02040800",
    "addr1": "제주특별자치도 서귀포시 516로 717 (상효동)",
    "lat": 33.3128299569,
    "lng": 126.5966821327
  },
  {
    "kto_title": "서귀진지",
    "contentid": "2822432",
    "contenttypeid": "12",
    "contenttype_label": "관광지",
    "cat1": "A02",
    "cat2": "A0201",
    "cat3": "A02010700",
    "addr1": "제주특별자치도 서귀포시 솔동산로11번길 8-18 (서귀동)",
    "lat": 33.2431593507,
    "lng": 126.5640976362
  },
  {
    "kto_title": "서귀포 알토산마을",
    "contentid": "129381",
    "contenttypeid": "12",
    "contenttype_label": "관광지",
    "cat1": "A02",
    "cat2": "A0203",
    "cat3": "A02030100",
    "addr1": "제주특별자치도 서귀포시 표선면 토산중앙로16번길 1",
    "lat": 33.3085528077,
    "lng": 126.7803857597
  },
  {
    "kto_title": "서귀포 용왕난드르마을",
    "contentid": "129327",
    "contenttypeid": "12",
    "contenttype_label": "관광지",
    "cat1": "A02",
    "cat2": "A0203",
    "cat3": "A02030100",
    "addr1": "제주특별자치도 서귀포시 안덕면 대평감산로 8",
    "lat": 33.2354376484,
    "lng": 126.3670621143
  },
  {
    "kto_title": "서귀포 패류화석산지",
    "contentid": "2932006",
    "contenttypeid": "12",
    "contenttype_label": "관광지",
    "cat1": "A01",
    "cat2": "A0101",
    "cat3": "A01010500",
    "addr1": "제주특별자치도 서귀포시 남성중로 43 (서홍동)",
    "lat": 33.2398207377,
    "lng": 126.5582787717
  },
  {
    "kto_title": "서귀포 하논분화구",
    "contentid": "2615028",
    "contenttypeid": "12",
    "contenttype_label": "관광지",
    "cat1": "A01",
    "cat2": "A0101",
    "cat3": "A01010500",
    "addr1": "제주특별자치도 서귀포시 일주동로 8823",
    "lat": 33.2543967165,
    "lng": 126.5462294883
  },
  {
    "kto_title": "서귀포유람선",
    "contentid": "128838",
    "contenttypeid": "12",
    "contenttype_label": "관광지",
    "cat1": "A02",
    "cat2": "A0202",
    "cat3": "A02020800",
    "addr1": "제주특별자치도 서귀포시 남성중로 40",
    "lat": 33.239193032,
    "lng": 126.5584621032
  },
  {
    "kto_title": "서귀포자연휴양림",
    "contentid": "128175",
    "contenttypeid": "12",
    "contenttype_label": "관광지",
    "cat1": "A01",
    "cat2": "A0101",
    "cat3": "A01010600",
    "addr1": "제주특별자치도 서귀포시 1100로 882",
    "lat": 33.3108197268,
    "lng": 126.4630826543
  },
  {
    "kto_title": "서귀포칠십리시공원",
    "contentid": "2836814",
    "contenttypeid": "12",
    "contenttype_label": "관광지",
    "cat1": "A01",
    "cat2": "A0101",
    "cat3": "A01010700",
    "addr1": "제주특별자치도 서귀포시 현청로 41-19 (서홍동)",
    "lat": 33.2668788062,
    "lng": 126.5546645878
  },
  {
    "kto_title": "서귀포항",
    "contentid": "2791505",
    "contenttypeid": "12",
    "contenttype_label": "관광지",
    "cat1": "A01",
    "cat2": "A0101",
    "cat3": "A01011400",
    "addr1": "제주특별자치도 서귀포시 칠십리로72번길 14",
    "lat": 33.239159804,
    "lng": 126.5648726592
  },
  {
    "kto_title": "서귀포해안",
    "contentid": "1896768",
    "contenttypeid": "12",
    "contenttype_label": "관광지",
    "cat1": "A01",
    "cat2": "A0101",
    "cat3": "A01011100",
    "addr1": "제주특별자치도 서귀포시 남성로128번길 13 (서홍동)",
    "lat": 33.2418038156,
    "lng": 126.5559789263
  },
  {
    "kto_title": "서귀포해양도립공원",
    "contentid": "601489",
    "contenttypeid": "12",
    "contenttype_label": "관광지",
    "cat1": "A01",
    "cat2": "A0101",
    "cat3": "A01010200",
    "addr1": "제주특별자치도 서귀포시 남성중로 43 (서홍동)",
    "lat": 33.2398207377,
    "lng": 126.5582787717
  },
  {
    "kto_title": "서프라이즈 테마파크",
    "contentid": "2633955",
    "contenttypeid": "12",
    "contenttype_label": "관광지",
    "cat1": "A02",
    "cat2": "A0202",
    "cat3": "A02020600",
    "addr1": "제주특별자치도 제주시 조천읍 남조로 2243",
    "lat": 33.4652169011,
    "lng": 126.6596065516
  },
  {
    "kto_title": "석예원 본초 족욕 성산점",
    "contentid": "3012012",
    "contenttypeid": "12",
    "contenttype_label": "관광지",
    "cat1": "A02",
    "cat2": "A0202",
    "cat3": "A02020500",
    "addr1": "제주특별자치도 서귀포시 성산읍 섭지코지로25번길 34",
    "lat": 33.4421097515,
    "lng": 126.9195734269
  },
  {
    "kto_title": "선광사(제주)",
    "contentid": "318339",
    "contenttypeid": "12",
    "contenttype_label": "관광지",
    "cat1": "A02",
    "cat2": "A0201",
    "cat3": "A02010800",
    "addr1": "제주특별자치도 서귀포시 남원읍 태위로510번길 42",
    "lat": 33.2726999126,
    "lng": 126.6994907989
  },
  {
    "kto_title": "선녀와나무꾼",
    "contentid": "598187",
    "contenttypeid": "12",
    "contenttype_label": "관광지",
    "cat1": "A02",
    "cat2": "A0202",
    "cat3": "A02020600",
    "addr1": "제주특별자치도 제주시 조천읍 선흘리",
    "lat": 33.4792299475,
    "lng": 126.7037135147
  },
  {
    "kto_title": "선운정사",
    "contentid": "2738675",
    "contenttypeid": "12",
    "contenttype_label": "관광지",
    "cat1": "A02",
    "cat2": "A0201",
    "cat3": "A02010800",
    "addr1": "제주특별자치도 제주시 애월읍 구몰동길 65",
    "lat": 33.4293874894,
    "lng": 126.3071574318
  },
  {
    "kto_title": "선임교",
    "contentid": "988441",
    "contenttypeid": "12",
    "contenttype_label": "관광지",
    "cat1": "A02",
    "cat2": "A0205",
    "cat3": "A02050100",
    "addr1": "제주특별자치도 서귀포시 중문로105번길 37",
    "lat": 33.247055995,
    "lng": 126.5547483594
  },
  {
    "kto_title": "선흘2리마을",
    "contentid": "2774278",
    "contenttypeid": "12",
    "contenttype_label": "관광지",
    "cat1": "A02",
    "cat2": "A0203",
    "cat3": "A02030100",
    "addr1": "제주특별자치도 제주시 조천읍 선교로 569-36",
    "lat": 33.4569075855,
    "lng": 126.7142936617
  },
  {
    "kto_title": "섭지코지",
    "contentid": "127813",
    "contenttypeid": "12",
    "contenttype_label": "관광지",
    "cat1": "A01",
    "cat2": "A0101",
    "cat3": "A01011100",
    "addr1": "제주특별자치도 서귀포시 성산읍 섭지코지로 107",
    "lat": 33.430250088,
    "lng": 126.9280674087
  },
  {
    "kto_title": "섯알오름",
    "contentid": "2715651",
    "contenttypeid": "12",
    "contenttype_label": "관광지",
    "cat1": "A01",
    "cat2": "A0101",
    "cat3": "A01010400",
    "addr1": "제주특별자치도 서귀포시 대정읍 상모리 1618",
    "lat": 33.2042091988,
    "lng": 126.2815563372
  },
  {
    "kto_title": "성불오름",
    "contentid": "2704232",
    "contenttypeid": "12",
    "contenttype_label": "관광지",
    "cat1": "A01",
    "cat2": "A0101",
    "cat3": "A01010400",
    "addr1": "제주특별자치도 제주시 구좌읍 중산간동로 2532",
    "lat": 33.4594588218,
    "lng": 126.8086881941
  },
  {
    "kto_title": "성산세화해안도로",
    "contentid": "2791450",
    "contenttypeid": "12",
    "contenttype_label": "관광지",
    "cat1": "A01",
    "cat2": "A0101",
    "cat3": "A01010500",
    "addr1": "제주특별자치도 제주시 구좌읍 종달리 112-1",
    "lat": 33.510090917,
    "lng": 126.9065285449
  },
  {
    "kto_title": "성산일출봉 [유네스코 세계자연유산]",
    "contentid": "126435",
    "contenttypeid": "12",
    "contenttype_label": "관광지",
    "cat1": "A01",
    "cat2": "A0101",
    "cat3": "A01010400",
    "addr1": "제주특별자치도 서귀포시 성산읍 일출로 284-12",
    "lat": 33.4581111174,
    "lng": 126.9415156012
  },
  {
    "kto_title": "성산포JC공원",
    "contentid": "2798131",
    "contenttypeid": "12",
    "contenttype_label": "관광지",
    "cat1": "A02",
    "cat2": "A0202",
    "cat3": "A02020700",
    "addr1": "제주특별자치도 서귀포시 성산읍 고성리",
    "lat": 33.4548306763,
    "lng": 126.9262142246
  },
  {
    "kto_title": "성산포유람선",
    "contentid": "128154",
    "contenttypeid": "12",
    "contenttype_label": "관광지",
    "cat1": "A02",
    "cat2": "A0202",
    "cat3": "A02020800",
    "addr1": "제주특별자치도 서귀포시 성산읍 성산등용로 130-21",
    "lat": 33.4729843609,
    "lng": 126.9345186424
  },
  {
    "kto_title": "성읍녹차동굴",
    "contentid": "3008392",
    "contenttypeid": "12",
    "contenttype_label": "관광지",
    "cat1": "A01",
    "cat2": "A0101",
    "cat3": "A01011900",
    "addr1": "제주특별자치도 서귀포시 중산간동로 4772",
    "lat": 33.381089421,
    "lng": 126.7912859405
  },
  {
    "kto_title": "성읍녹차마을",
    "contentid": "3009659",
    "contenttypeid": "12",
    "contenttype_label": "관광지",
    "cat1": "A02",
    "cat2": "A0203",
    "cat3": "A02030100",
    "addr1": "제주특별자치도 서귀포시 중산간동로 4778 녹차가공공장",
    "lat": 33.3813449392,
    "lng": 126.7906832086
  },
  {
    "kto_title": "성읍민속마을",
    "contentid": "126471",
    "contenttypeid": "12",
    "contenttype_label": "관광지",
    "cat1": "A02",
    "cat2": "A0201",
    "cat3": "A02010600",
    "addr1": "제주특별자치도 서귀포시 표선면 성읍리",
    "lat": 33.388430228,
    "lng": 126.7882138165
  },
  {
    "kto_title": "성이시돌목장",
    "contentid": "2606298",
    "contenttypeid": "12",
    "contenttype_label": "관광지",
    "cat1": "A02",
    "cat2": "A0203",
    "cat3": "A02030100",
    "addr1": "제주특별자치도 제주시 한림읍 산록남로 53",
    "lat": 33.3501687835,
    "lng": 126.3267463901
  },
  {
    "kto_title": "성판악",
    "contentid": "126436",
    "contenttypeid": "12",
    "contenttype_label": "관광지",
    "cat1": "A01",
    "cat2": "A0101",
    "cat3": "A01010400",
    "addr1": "제주특별자치도 제주시 조천읍 516로 1865",
    "lat": 33.3848945984,
    "lng": 126.6203951135
  },
  {
    "kto_title": "세기알해변",
    "contentid": "3097814",
    "contenttypeid": "12",
    "contenttype_label": "관광지",
    "cat1": "A01",
    "cat2": "A0101",
    "cat3": "A01011200",
    "addr1": "제주특별자치도 제주시 구좌읍 김녕리",
    "lat": 33.5577304412,
    "lng": 126.7563127037
  },
  {
    "kto_title": "세천포구",
    "contentid": "2781386",
    "contenttypeid": "12",
    "contenttype_label": "관광지",
    "cat1": "A01",
    "cat2": "A0101",
    "cat3": "A01011400",
    "addr1": "제주특별자치도 서귀포시 남원읍 위미리 799-2",
    "lat": 33.2696137381,
    "lng": 126.6741708395
  },
  {
    "kto_title": "소남머리",
    "contentid": "1945578",
    "contenttypeid": "12",
    "contenttype_label": "관광지",
    "cat1": "A01",
    "cat2": "A0101",
    "cat3": "A01011100",
    "addr1": "제주특별자치도 서귀포시 칠십리로 145 (서귀동)",
    "lat": 33.2443787372,
    "lng": 126.5689416339
  },
  {
    "kto_title": "소노캄 제주",
    "contentid": "138019",
    "contenttypeid": "12",
    "contenttype_label": "관광지",
    "cat1": "A02",
    "cat2": "A0202",
    "cat3": "A02020200",
    "addr1": "제주특별자치도 서귀포시 표선면 일주동로 6347-17",
    "lat": 33.3060421741,
    "lng": 126.7929069544
  },
  {
    "kto_title": "소머리오름(우도봉)",
    "contentid": "598696",
    "contenttypeid": "12",
    "contenttype_label": "관광지",
    "cat1": "A01",
    "cat2": "A0101",
    "cat3": "A01010400",
    "addr1": "제주특별자치도 제주시 우도면 연평리",
    "lat": 33.4915605829,
    "lng": 126.9651405598
  },
  {
    "kto_title": "소정방폭포",
    "contentid": "129405",
    "contenttypeid": "12",
    "contenttype_label": "관광지",
    "cat1": "A01",
    "cat2": "A0101",
    "cat3": "A01010800",
    "addr1": "제주특별자치도 서귀포시 칠십리로214번길 17-17 (동홍동)",
    "lat": 33.2452065509,
    "lng": 126.5769659202
  },
  {
    "kto_title": "소천지",
    "contentid": "2781401",
    "contenttypeid": "12",
    "contenttype_label": "관광지",
    "cat1": "A01",
    "cat2": "A0101",
    "cat3": "A01011100",
    "addr1": "제주특별자치도 서귀포시 칠십리로485번길 2 (보목동)",
    "lat": 33.2417795599,
    "lng": 126.6027220992
  },
  {
    "kto_title": "속골유원지",
    "contentid": "3071744",
    "contenttypeid": "12",
    "contenttype_label": "관광지",
    "cat1": "A02",
    "cat2": "A0202",
    "cat3": "A02020700",
    "addr1": "제주특별자치도 서귀포시 호근동",
    "lat": 33.2405340402,
    "lng": 126.5262315324
  },
  {
    "kto_title": "손지오름",
    "contentid": "1945394",
    "contenttypeid": "12",
    "contenttype_label": "관광지",
    "cat1": "A01",
    "cat2": "A0101",
    "cat3": "A01010400",
    "addr1": "제주특별자치도 제주시 구좌읍 종달리",
    "lat": 33.4564732156,
    "lng": 126.8195400994
  },
  {
    "kto_title": "송당무끈모루",
    "contentid": "2836910",
    "contenttypeid": "12",
    "contenttype_label": "관광지",
    "cat1": "A01",
    "cat2": "A0101",
    "cat3": "A01010400",
    "addr1": "제주특별자치도 제주시 비자림로 1661-13",
    "lat": 33.4568057445,
    "lng": 126.7718858903
  },
  {
    "kto_title": "송아오름",
    "contentid": "1945592",
    "contenttypeid": "12",
    "contenttype_label": "관광지",
    "cat1": "A01",
    "cat2": "A0101",
    "cat3": "A01010400",
    "addr1": "제주특별자치도 제주시 한경면 용금로 545",
    "lat": 33.3372049375,
    "lng": 126.2381599336
  },
  {
    "kto_title": "송악산 진지동굴",
    "contentid": "2765245",
    "contenttypeid": "12",
    "contenttype_label": "관광지",
    "cat1": "A01",
    "cat2": "A0101",
    "cat3": "A01011900",
    "addr1": "제주특별자치도 서귀포시 대정읍 상모리 238",
    "lat": 33.1991210589,
    "lng": 126.2935109685
  },
  {
    "kto_title": "송악산전망대",
    "contentid": "2765237",
    "contenttypeid": "12",
    "contenttype_label": "관광지",
    "cat1": "A02",
    "cat2": "A0205",
    "cat3": "A02050600",
    "addr1": "제주특별자치도 서귀포시 대정읍 상모리 2-13",
    "lat": 33.1981045181,
    "lng": 126.2943831374
  },
  {
    "kto_title": "쇠소깍",
    "contentid": "129617",
    "contenttypeid": "12",
    "contenttype_label": "관광지",
    "cat1": "A01",
    "cat2": "A0101",
    "cat3": "A01010900",
    "addr1": "제주특별자치도 서귀포시 쇠소깍로 104 (하효동)",
    "lat": 33.254275717,
    "lng": 126.6224173342
  },
  {
    "kto_title": "수목원테마파크(아이스뮤지엄)",
    "contentid": "2553685",
    "contenttypeid": "12",
    "contenttype_label": "관광지",
    "cat1": "A02",
    "cat2": "A0202",
    "cat3": "A02020600",
    "addr1": "제주특별자치도 제주시 은수길 69",
    "lat": 33.4706885565,
    "lng": 126.4879352279
  },
  {
    "kto_title": "수산봉",
    "contentid": "2714826",
    "contenttypeid": "12",
    "contenttype_label": "관광지",
    "cat1": "A01",
    "cat2": "A0101",
    "cat3": "A01010400",
    "addr1": "제주특별자치도 제주시 애월읍 수산리 산1-1",
    "lat": 33.473847651,
    "lng": 126.3828359615
  },
  {
    "kto_title": "수산한못",
    "contentid": "3011245",
    "contenttypeid": "12",
    "contenttype_label": "관광지",
    "cat1": "A01",
    "cat2": "A0101",
    "cat3": "A01011800",
    "addr1": "제주특별자치도 서귀포시 성산읍 수산리",
    "lat": 33.4290849574,
    "lng": 126.843227563
  },
  {
    "kto_title": "수악(물오름)",
    "contentid": "1945208",
    "contenttypeid": "12",
    "contenttype_label": "관광지",
    "cat1": "A01",
    "cat2": "A0101",
    "cat3": "A01010400",
    "addr1": "제주특별자치도 서귀포시 남원읍 516로 1042",
    "lat": 33.324667743,
    "lng": 126.6094946439
  },
  {
    "kto_title": "수월봉",
    "contentid": "126434",
    "contenttypeid": "12",
    "contenttype_label": "관광지",
    "cat1": "A01",
    "cat2": "A0101",
    "cat3": "A01010400",
    "addr1": "제주특별자치도 제주시 한경면 고산리 3760",
    "lat": 33.2947890147,
    "lng": 126.1634201497
  },
  {
    "kto_title": "수월봉과 차귀해안",
    "contentid": "228859",
    "contenttypeid": "12",
    "contenttype_label": "관광지",
    "cat1": "A01",
    "cat2": "A0101",
    "cat3": "A01011100",
    "addr1": "제주특별자치도 제주시 한경면 노을해안로 1013-70",
    "lat": 33.2941224154,
    "lng": 126.1630063111
  },
  {
    "kto_title": "순례자의 교회",
    "contentid": "2789652",
    "contenttypeid": "12",
    "contenttype_label": "관광지",
    "cat1": "A02",
    "cat2": "A0201",
    "cat3": "A02010900",
    "addr1": "제주특별자치도 제주시 한경면 일주서로 3960-24",
    "lat": 33.319830957,
    "lng": 126.1805486613
  },
  {
    "kto_title": "쉬리의언덕",
    "contentid": "2858445",
    "contenttypeid": "12",
    "contenttype_label": "관광지",
    "cat1": "A01",
    "cat2": "A0101",
    "cat3": "A01010500",
    "addr1": "제주특별자치도 서귀포시 색달동",
    "lat": 33.2456204901,
    "lng": 126.4072611777
  },
  {
    "kto_title": "쉼한모금",
    "contentid": "2602774",
    "contenttypeid": "12",
    "contenttype_label": "관광지",
    "cat1": "A02",
    "cat2": "A0202",
    "cat3": "A02020700",
    "addr1": "제주특별자치도 서귀포시 산록남로 1258 (색달동)",
    "lat": 33.2937431939,
    "lng": 126.4224782273
  },
  {
    "kto_title": "신도포구",
    "contentid": "2738715",
    "contenttypeid": "12",
    "contenttype_label": "관광지",
    "cat1": "A01",
    "cat2": "A0101",
    "cat3": "A01011400",
    "addr1": "제주특별자치도 서귀포시 대정읍 신도리 3046-2",
    "lat": 33.2776660082,
    "lng": 126.1698755227
  },
  {
    "kto_title": "신산공원",
    "contentid": "2414812",
    "contenttypeid": "12",
    "contenttype_label": "관광지",
    "cat1": "A02",
    "cat2": "A0202",
    "cat3": "A02020700",
    "addr1": "제주특별자치도 제주시 신산로 92-12",
    "lat": 33.505279902,
    "lng": 126.533791569
  },
  {
    "kto_title": "신양섭지해수욕장",
    "contentid": "126447",
    "contenttypeid": "12",
    "contenttype_label": "관광지",
    "cat1": "A01",
    "cat2": "A0101",
    "cat3": "A01011200",
    "addr1": "제주특별자치도 서귀포시 성산읍 섭지코지로 107",
    "lat": 33.430250088,
    "lng": 126.9280674087
  },
  {
    "kto_title": "신창풍차해안도로",
    "contentid": "2663250",
    "contenttypeid": "12",
    "contenttype_label": "관광지",
    "cat1": "A01",
    "cat2": "A0101",
    "cat3": "A01010500",
    "addr1": "제주특별자치도 제주시 한경면 한경해안로 485",
    "lat": 33.3431254722,
    "lng": 126.172134988
  },
  {
    "kto_title": "신촌 4·3 성터",
    "contentid": "2872927",
    "contenttypeid": "12",
    "contenttype_label": "관광지",
    "cat1": "A02",
    "cat2": "A0201",
    "cat3": "A02010700",
    "addr1": "제주특별자치도 제주시 조천읍 신촌리",
    "lat": 33.5377303544,
    "lng": 126.6131117136
  },
  {
    "kto_title": "신촌향사",
    "contentid": "1621045",
    "contenttypeid": "12",
    "contenttype_label": "관광지",
    "cat1": "A02",
    "cat2": "A0201",
    "cat3": "A02010700",
    "addr1": "제주특별자치도 제주시 조천읍 신촌5길 27",
    "lat": 33.5365417182,
    "lng": 126.620683305
  },
  {
    "kto_title": "신풍 신천 바다목장",
    "contentid": "635701",
    "contenttypeid": "12",
    "contenttype_label": "관광지",
    "cat1": "A01",
    "cat2": "A0101",
    "cat3": "A01011100",
    "addr1": "제주특별자치도 서귀포시 성산읍 일주동로 5417",
    "lat": 33.3560016909,
    "lng": 126.8638107873
  },
  {
    "kto_title": "신풍리 밭담길",
    "contentid": "2661821",
    "contenttypeid": "12",
    "contenttype_label": "관광지",
    "cat1": "A02",
    "cat2": "A0203",
    "cat3": "A02030600",
    "addr1": "제주특별자치도 서귀포시 성산읍 신풍하동로 39",
    "lat": 33.3619034434,
    "lng": 126.8405765535
  },
  {
    "kto_title": "신풍리체험휴양마을",
    "contentid": "128326",
    "contenttypeid": "12",
    "contenttype_label": "관광지",
    "cat1": "A02",
    "cat2": "A0203",
    "cat3": "A02030100",
    "addr1": "제주특별자치도 서귀포시 성산읍 신풍하동로 39",
    "lat": 33.3619201078,
    "lng": 126.8405571105
  },
  {
    "kto_title": "신화워터파크",
    "contentid": "2562239",
    "contenttypeid": "12",
    "contenttype_label": "관광지",
    "cat1": "A02",
    "cat2": "A0204",
    "cat3": "A02040800",
    "addr1": "제주특별자치도 서귀포시 신화역사로304번길 38",
    "lat": 33.3072595277,
    "lng": 126.3197479556
  },
  {
    "kto_title": "신화테마파크",
    "contentid": "2562214",
    "contenttypeid": "12",
    "contenttype_label": "관광지",
    "cat1": "A02",
    "cat2": "A0204",
    "cat3": "A02040800",
    "addr1": "제주특별자치도 서귀포시 안덕면 신화역사로304번길 98",
    "lat": 33.3065177523,
    "lng": 126.3076045827
  },
  {
    "kto_title": "싱계물공원",
    "contentid": "2742307",
    "contenttypeid": "12",
    "contenttype_label": "관광지",
    "cat1": "A01",
    "cat2": "A0101",
    "cat3": "A01010500",
    "addr1": "제주특별자치도 제주시 한경면 신창리 1322-1",
    "lat": 33.3434476864,
    "lng": 126.1739042716
  },
  {
    "kto_title": "아끈다랑쉬 오름",
    "contentid": "2740133",
    "contenttypeid": "12",
    "contenttype_label": "관광지",
    "cat1": "A01",
    "cat2": "A0101",
    "cat3": "A01010400",
    "addr1": "제주특별자치도 제주시 구좌읍 세화리 2593",
    "lat": 33.4754212946,
    "lng": 126.8302942866
  },
  {
    "kto_title": "아날로그감귤밭",
    "contentid": "2763820",
    "contenttypeid": "12",
    "contenttype_label": "관광지",
    "cat1": "A02",
    "cat2": "A0203",
    "cat3": "A02030100",
    "addr1": "제주특별자치도 제주시 해안마을5길 124-85 (해안동)",
    "lat": 33.4579895705,
    "lng": 126.4633015454
  },
  {
    "kto_title": "아부오름",
    "contentid": "1351320",
    "contenttypeid": "12",
    "contenttype_label": "관광지",
    "cat1": "A01",
    "cat2": "A0101",
    "cat3": "A01010400",
    "addr1": "제주특별자치도 제주시 구좌읍 송당리",
    "lat": 33.4473291064,
    "lng": 126.7776133886
  },
  {
    "kto_title": "아쿠아플라넷 제주",
    "contentid": "2048059",
    "contenttypeid": "12",
    "contenttype_label": "관광지",
    "cat1": "A02",
    "cat2": "A0202",
    "cat3": "A02020600",
    "addr1": "제주특별자치도 서귀포시 성산읍 섭지코지로 95",
    "lat": 33.4328331325,
    "lng": 126.9278590339
  },
  {
    "kto_title": "안덕계곡",
    "contentid": "126440",
    "contenttypeid": "12",
    "contenttype_label": "관광지",
    "cat1": "A01",
    "cat2": "A0101",
    "cat3": "A01010900",
    "addr1": "제주특별자치도 서귀포시 안덕면 감산리",
    "lat": 33.2573294533,
    "lng": 126.3529100773
  },
  {
    "kto_title": "안덕월라봉",
    "contentid": "3026668",
    "contenttypeid": "12",
    "contenttype_label": "관광지",
    "cat1": "A01",
    "cat2": "A0101",
    "cat3": "A01010400",
    "addr1": "제주특별자치도 서귀포시 안덕면 감산리",
    "lat": 33.2436725784,
    "lng": 126.3497828747
  },
  {
    "kto_title": "안돌오름",
    "contentid": "2724387",
    "contenttypeid": "12",
    "contenttype_label": "관광지",
    "cat1": "A01",
    "cat2": "A0101",
    "cat3": "A01010400",
    "addr1": "제주특별자치도 제주시 구좌읍 송당리 산 66-2",
    "lat": 33.4573054352,
    "lng": 126.7560844718
  },
  {
    "kto_title": "안성리수국길",
    "contentid": "2778897",
    "contenttypeid": "12",
    "contenttype_label": "관광지",
    "cat1": "A01",
    "cat2": "A0101",
    "cat3": "A01010500",
    "addr1": "제주특별자치도 서귀포시 대정읍 안성리",
    "lat": 33.2696992239,
    "lng": 126.2837741374
  },
  {
    "kto_title": "안의울림",
    "contentid": "3396532",
    "contenttypeid": "12",
    "contenttype_label": "관광지",
    "cat1": "A02",
    "cat2": "A0203",
    "cat3": "A02030400",
    "addr1": "제주특별자치도 제주시 애월읍 애월북서길 15",
    "lat": 33.4653835799,
    "lng": 126.3119978701
  },
  {
    "kto_title": "알뜨르비행장 및 일본군 비행기 격납고",
    "contentid": "128640",
    "contenttypeid": "12",
    "contenttype_label": "관광지",
    "cat1": "A02",
    "cat2": "A0201",
    "cat3": "A02010700",
    "addr1": "제주특별자치도 서귀포시 대정읍 상모리",
    "lat": 33.2031230704,
    "lng": 126.2727654572
  },
  {
    "kto_title": "알작지",
    "contentid": "2740135",
    "contenttypeid": "12",
    "contenttype_label": "관광지",
    "cat1": "A01",
    "cat2": "A0101",
    "cat3": "A01011200",
    "addr1": "제주특별자치도 제주시 테우해안로 60",
    "lat": 33.4962044339,
    "lng": 126.4412414879
  },
  {
    "kto_title": "애월해안도로",
    "contentid": "2791501",
    "contenttypeid": "12",
    "contenttype_label": "관광지",
    "cat1": "A01",
    "cat2": "A0101",
    "cat3": "A01010500",
    "addr1": "제주특별자치도 제주시 애월읍 구엄리",
    "lat": 33.482529905,
    "lng": 126.375411412
  },
  {
    "kto_title": "액티브파크 제주",
    "contentid": "2858860",
    "contenttypeid": "12",
    "contenttype_label": "관광지",
    "cat1": "A02",
    "cat2": "A0202",
    "cat3": "A02020600",
    "addr1": "제주특별자치도 제주시 한림읍 금능남로 76",
    "lat": 33.3811722638,
    "lng": 126.2360869133
  },
  {
    "kto_title": "약천사(제주)",
    "contentid": "127862",
    "contenttypeid": "12",
    "contenttype_label": "관광지",
    "cat1": "A02",
    "cat2": "A0201",
    "cat3": "A02010800",
    "addr1": "제주특별자치도 서귀포시 이어도로 293-28",
    "lat": 33.2453656306,
    "lng": 126.449674172
  },
  {
    "kto_title": "어승생",
    "contentid": "127202",
    "contenttypeid": "12",
    "contenttype_label": "관광지",
    "cat1": "A01",
    "cat2": "A0101",
    "cat3": "A01010400",
    "addr1": "제주특별자치도 제주시 해안동",
    "lat": 33.3856593715,
    "lng": 126.5067521811
  },
  {
    "kto_title": "어영공원",
    "contentid": "1925362",
    "contenttypeid": "12",
    "contenttype_label": "관광지",
    "cat1": "A02",
    "cat2": "A0202",
    "cat3": "A02020700",
    "addr1": "제주특별자치도 제주시 서해안로 451 (용담삼동)",
    "lat": 33.5183749384,
    "lng": 126.4875702904
  },
  {
    "kto_title": "엉덩물계곡",
    "contentid": "2662743",
    "contenttypeid": "12",
    "contenttype_label": "관광지",
    "cat1": "A01",
    "cat2": "A0101",
    "cat3": "A01010900",
    "addr1": "제주특별자치도 서귀포시 색달동",
    "lat": 33.2479286727,
    "lng": 126.4139105501
  },
  {
    "kto_title": "엉또돌다카페앤농원",
    "contentid": "3071718",
    "contenttypeid": "12",
    "contenttype_label": "관광지",
    "cat1": "A02",
    "cat2": "A0203",
    "cat3": "A02030100",
    "addr1": "제주특별자치도 서귀포시 월산로 30 (강정동)",
    "lat": 33.2633393524,
    "lng": 126.494353229
  },
  {
    "kto_title": "엉또폭포",
    "contentid": "127052",
    "contenttypeid": "12",
    "contenttype_label": "관광지",
    "cat1": "A01",
    "cat2": "A0101",
    "cat3": "A01010800",
    "addr1": "제주특별자치도 서귀포시 엉또로 104 (강정동)",
    "lat": 33.2672723157,
    "lng": 126.4984055673
  },
  {
    "kto_title": "엉알해안",
    "contentid": "1898906",
    "contenttypeid": "12",
    "contenttype_label": "관광지",
    "cat1": "A01",
    "cat2": "A0101",
    "cat3": "A01011100",
    "addr1": "제주특별자치도 제주시 한경면 고산리",
    "lat": 33.2994219009,
    "lng": 126.1676196819
  },
  {
    "kto_title": "에코그린리조트",
    "contentid": "2605527",
    "contenttypeid": "12",
    "contenttype_label": "관광지",
    "cat1": "A02",
    "cat2": "A0202",
    "cat3": "A02020200",
    "addr1": "제주특별자치도 제주시 한림읍 귀덕6길 94",
    "lat": 33.4353226964,
    "lng": 126.2914864404
  },
  {
    "kto_title": "에코랜드테마파크",
    "contentid": "1146121",
    "contenttypeid": "12",
    "contenttype_label": "관광지",
    "cat1": "A02",
    "cat2": "A0202",
    "cat3": "A02020600",
    "addr1": "제주특별자치도 제주시 조천읍 번영로 1278-169",
    "lat": 33.4564874302,
    "lng": 126.6670616591
  },
  {
    "kto_title": "여미지식물원",
    "contentid": "126464",
    "contenttypeid": "12",
    "contenttype_label": "관광지",
    "cat1": "A01",
    "cat2": "A0101",
    "cat3": "A01010700",
    "addr1": "제주특별자치도 서귀포시 중문관광로 93 (색달동)",
    "lat": 33.2520782258,
    "lng": 126.4145798438
  },
  {
    "kto_title": "연대포구",
    "contentid": "2738683",
    "contenttypeid": "12",
    "contenttype_label": "관광지",
    "cat1": "A01",
    "cat2": "A0101",
    "cat3": "A01011400",
    "addr1": "제주특별자치도 제주시 외도이동",
    "lat": 33.4950293341,
    "lng": 126.4267094451
  },
  {
    "kto_title": "연북정",
    "contentid": "126463",
    "contenttypeid": "12",
    "contenttype_label": "관광지",
    "cat1": "A02",
    "cat2": "A0201",
    "cat3": "A02010700",
    "addr1": "제주특별자치도 제주시 조천읍 조천리",
    "lat": 33.5402304438,
    "lng": 126.6359680033
  },
  {
    "kto_title": "연화못(하가못)",
    "contentid": "126473",
    "contenttypeid": "12",
    "contenttype_label": "관광지",
    "cat1": "A01",
    "cat2": "A0101",
    "cat3": "A01011700",
    "addr1": "제주특별자치도 제주시 애월읍 하가로",
    "lat": 33.4547464297,
    "lng": 126.3475200185
  },
  {
    "kto_title": "열대과일농장 유진팡",
    "contentid": "2977041",
    "contenttypeid": "12",
    "contenttype_label": "관광지",
    "cat1": "A02",
    "cat2": "A0203",
    "cat3": "A02030100",
    "addr1": "제주특별자치도 서귀포시 원님로399번길 31-7",
    "lat": 33.339945959,
    "lng": 126.7425272126
  },
  {
    "kto_title": "열안지오름(봉개동)",
    "contentid": "1925369",
    "contenttypeid": "12",
    "contenttype_label": "관광지",
    "cat1": "A01",
    "cat2": "A0101",
    "cat3": "A01010400",
    "addr1": "제주특별자치도 제주시 봉개동",
    "lat": 33.4726124405,
    "lng": 126.6055499659
  },
  {
    "kto_title": "열안지오름(오라동)",
    "contentid": "1925366",
    "contenttypeid": "12",
    "contenttype_label": "관광지",
    "cat1": "A01",
    "cat2": "A0101",
    "cat3": "A01010400",
    "addr1": "제주특별자치도 제주시 산록북로",
    "lat": 33.4265967334,
    "lng": 126.5207167107
  },
  {
    "kto_title": "영주산",
    "contentid": "2704351",
    "contenttypeid": "12",
    "contenttype_label": "관광지",
    "cat1": "A01",
    "cat2": "A0101",
    "cat3": "A01010400",
    "addr1": "제주특별자치도 서귀포시 표선면 성읍리",
    "lat": 33.4042093891,
    "lng": 12.79737228191
  },
  {
    "kto_title": "예래포구",
    "contentid": "2740052",
    "contenttypeid": "12",
    "contenttype_label": "관광지",
    "cat1": "A01",
    "cat2": "A0101",
    "cat3": "A01011400",
    "addr1": "제주특별자치도 서귀포시 예래해안로 97",
    "lat": 33.2335157559,
    "lng": 126.3745753937
  },
  {
    "kto_title": "예술공간 이아",
    "contentid": "2852695",
    "contenttypeid": "12",
    "contenttype_label": "관광지",
    "cat1": "A02",
    "cat2": "A0203",
    "cat3": "A02030400",
    "addr1": "제주특별자치도 제주시 중앙로14길 21 (삼도이동)",
    "lat": 33.5111846177,
    "lng": 126.5221091172
  },
  {
    "kto_title": "오레브핫스프링앤스파",
    "contentid": "3343597",
    "contenttypeid": "12",
    "contenttype_label": "관광지",
    "cat1": "A02",
    "cat2": "A0202",
    "cat3": "A02020300",
    "addr1": "제주특별자치도 서귀포시 태평로 152 (호근동)",
    "lat": 33.2433228122,
    "lng": 126.538266538
  },
  {
    "kto_title": "오백나한",
    "contentid": "1926354",
    "contenttypeid": "12",
    "contenttype_label": "관광지",
    "cat1": "A01",
    "cat2": "A0101",
    "cat3": "A01010400",
    "addr1": "제주특별자치도 서귀포시 하원동",
    "lat": 33.3545294146,
    "lng": 126.5027115669
  },
  {
    "kto_title": "오조마을",
    "contentid": "129071",
    "contenttypeid": "12",
    "contenttype_label": "관광지",
    "cat1": "A02",
    "cat2": "A0203",
    "cat3": "A02030100",
    "addr1": "제주특별자치도 서귀포시 성산읍 오조로 85",
    "lat": 33.4701955919,
    "lng": 126.9229030466
  },
  {
    "kto_title": "오조포구",
    "contentid": "2742256",
    "contenttypeid": "12",
    "contenttype_label": "관광지",
    "cat1": "A01",
    "cat2": "A0101",
    "cat3": "A01011400",
    "addr1": "제주특별자치도 서귀포시 성산읍 오조로 33",
    "lat": 33.4573829903,
    "lng": 126.9149845836
  },
  {
    "kto_title": "오현단",
    "contentid": "126462",
    "contenttypeid": "12",
    "contenttype_label": "관광지",
    "cat1": "A02",
    "cat2": "A0201",
    "cat3": "A02010700",
    "addr1": "제주특별자치도 제주시 오현길 61",
    "lat": 33.5102931048,
    "lng": 126.5255810579
  },
  {
    "kto_title": "와이리조트 제주",
    "contentid": "1891566",
    "contenttypeid": "12",
    "contenttype_label": "관광지",
    "cat1": "A02",
    "cat2": "A0202",
    "cat3": "A02020200",
    "addr1": "제주특별자치도 서귀포시 안덕면 화순중앙로124번길 75",
    "lat": 33.2426334601,
    "lng": 126.3278570231
  },
  {
    "kto_title": "와흘메밀마을",
    "contentid": "2905045",
    "contenttypeid": "12",
    "contenttype_label": "관광지",
    "cat1": "A02",
    "cat2": "A0203",
    "cat3": "A02030100",
    "addr1": "제주특별자치도 제주시 조천읍 남조로 2455",
    "lat": 33.4828120241,
    "lng": 126.6500819775
  },
  {
    "kto_title": "왕이메오름",
    "contentid": "2713585",
    "contenttypeid": "12",
    "contenttype_label": "관광지",
    "cat1": "A01",
    "cat2": "A0101",
    "cat3": "A01010400",
    "addr1": "제주특별자치도 서귀포시 안덕면 광평리",
    "lat": 33.3421787614,
    "lng": 126.3750562608
  },
  {
    "kto_title": "외돌개(제주)",
    "contentid": "126470",
    "contenttypeid": "12",
    "contenttype_label": "관광지",
    "cat1": "A01",
    "cat2": "A0102",
    "cat3": "A01020200",
    "addr1": "제주특별자치도 서귀포시 서흥동",
    "lat": 33.2402621646,
    "lng": 126.546215918
  },
  {
    "kto_title": "용눈이오름",
    "contentid": "572960",
    "contenttypeid": "12",
    "contenttype_label": "관광지",
    "cat1": "A01",
    "cat2": "A0101",
    "cat3": "A01010400",
    "addr1": "제주특별자치도 제주시 구좌읍 종달논길",
    "lat": 33.4588064928,
    "lng": 126.8320556271
  },
  {
    "kto_title": "용담공원",
    "contentid": "2767900",
    "contenttypeid": "12",
    "contenttype_label": "관광지",
    "cat1": "A02",
    "cat2": "A0202",
    "cat3": "A02020700",
    "addr1": "제주특별자치도 제주시 용담일동",
    "lat": 33.5081292873,
    "lng": 126.5150125811
  },
  {
    "kto_title": "용담해안도로",
    "contentid": "2738705",
    "contenttypeid": "12",
    "contenttype_label": "관광지",
    "cat1": "A01",
    "cat2": "A0101",
    "cat3": "A01010500",
    "addr1": "제주특별자치도 제주시 서해안로 687-8 (용담이동)",
    "lat": 33.5155784156,
    "lng": 126.5121043316
  },
  {
    "kto_title": "용두암",
    "contentid": "228853",
    "contenttypeid": "12",
    "contenttype_label": "관광지",
    "cat1": "A01",
    "cat2": "A0101",
    "cat3": "A01011100",
    "addr1": "제주특별자치도 제주시 용두암길 15 (용담이동)",
    "lat": 33.5147812884,
    "lng": 126.5125098697
  },
  {
    "kto_title": "용두암해수랜드",
    "contentid": "250412",
    "contenttypeid": "12",
    "contenttype_label": "관광지",
    "cat1": "A02",
    "cat2": "A0202",
    "cat3": "A02020400",
    "addr1": "제주특별자치도 제주시 서해안로 630",
    "lat": 33.5158588206,
    "lng": 126.504568869
  },
  {
    "kto_title": "용수성지",
    "contentid": "2765233",
    "contenttypeid": "12",
    "contenttype_label": "관광지",
    "cat1": "A02",
    "cat2": "A0201",
    "cat3": "A02010900",
    "addr1": "제주특별자치도 제주시 한경면 용수1길 108",
    "lat": 33.3228915301,
    "lng": 126.1677385965
  },
  {
    "kto_title": "용수항",
    "contentid": "2742267",
    "contenttypeid": "12",
    "contenttype_label": "관광지",
    "cat1": "A01",
    "cat2": "A0101",
    "cat3": "A01011400",
    "addr1": "제주특별자치도 제주시 한경면 용수리",
    "lat": 33.3233275724,
    "lng": 126.166408147
  },
  {
    "kto_title": "용연",
    "contentid": "127745",
    "contenttypeid": "12",
    "contenttype_label": "관광지",
    "cat1": "A01",
    "cat2": "A0101",
    "cat3": "A01010900",
    "addr1": "제주특별자치도 제주시 흥운길 73 (용담이동)",
    "lat": 33.5152118184,
    "lng": 126.5139125156
  },
  {
    "kto_title": "용연구름다리",
    "contentid": "2738692",
    "contenttypeid": "12",
    "contenttype_label": "관광지",
    "cat1": "A02",
    "cat2": "A0205",
    "cat3": "A02050100",
    "addr1": "제주특별자치도 제주시 용담이동",
    "lat": 33.5149285237,
    "lng": 126.5143124879
  },
  {
    "kto_title": "용천동굴 [유네스코 세계자연유산]",
    "contentid": "478113",
    "contenttypeid": "12",
    "contenttype_label": "관광지",
    "cat1": "A01",
    "cat2": "A0101",
    "cat3": "A01011900",
    "addr1": "제주특별자치도 제주시 구좌읍 월정리",
    "lat": 33.5485068173,
    "lng": 126.7783610017
  },
  {
    "kto_title": "우도",
    "contentid": "127336",
    "contenttypeid": "12",
    "contenttype_label": "관광지",
    "cat1": "A01",
    "cat2": "A0101",
    "cat3": "A01011300",
    "addr1": "제주특별자치도 제주시 삼양고수물길 1",
    "lat": 33.51950171,
    "lng": 126.951030025
  },
  {
    "kto_title": "우도 등대",
    "contentid": "129147",
    "contenttypeid": "12",
    "contenttype_label": "관광지",
    "cat1": "A01",
    "cat2": "A0101",
    "cat3": "A01011600",
    "addr1": "제주특별자치도 제주시 우도면 우도봉길 105",
    "lat": 33.4920855483,
    "lng": 126.9665931996
  },
  {
    "kto_title": "우도산호해변 홍조단괴 서빈백사",
    "contentid": "598558",
    "contenttypeid": "12",
    "contenttype_label": "관광지",
    "cat1": "A01",
    "cat2": "A0101",
    "cat3": "A01011200",
    "addr1": "제주특별자치도 제주시 우도면 우도해안길 252",
    "lat": 33.5026812286,
    "lng": 126.9437532672
  },
  {
    "kto_title": "운진항",
    "contentid": "2781327",
    "contenttypeid": "12",
    "contenttype_label": "관광지",
    "cat1": "A01",
    "cat2": "A0101",
    "cat3": "A01011400",
    "addr1": "제주특별자치도 서귀포시 대정읍 하모리",
    "lat": 33.2095276929,
    "lng": 126.2583110141
  },
  {
    "kto_title": "원당사지",
    "contentid": "126458",
    "contenttypeid": "12",
    "contenttype_label": "관광지",
    "cat1": "A02",
    "cat2": "A0201",
    "cat3": "A02010700",
    "addr1": "제주특별자치도 제주시 원당로16길 41",
    "lat": 33.5290560802,
    "lng": 126.5984742947
  },
  {
    "kto_title": "월령 선인장군락지",
    "contentid": "2742357",
    "contenttypeid": "12",
    "contenttype_label": "관광지",
    "cat1": "A01",
    "cat2": "A0101",
    "cat3": "A01010500",
    "addr1": "제주특별자치도 제주시 한림읍 월령리",
    "lat": 33.3780278479,
    "lng": 126.2157082002
  },
  {
    "kto_title": "월령포구",
    "contentid": "2742297",
    "contenttypeid": "12",
    "contenttype_label": "관광지",
    "cat1": "A01",
    "cat2": "A0101",
    "cat3": "A01011400",
    "addr1": "제주특별자치도 제주시 한림읍 월령리 317-1",
    "lat": 33.3785527991,
    "lng": 126.2163109139
  },
  {
    "kto_title": "월영사(제주)",
    "contentid": "347233",
    "contenttypeid": "12",
    "contenttype_label": "관광지",
    "cat1": "A02",
    "cat2": "A0201",
    "cat3": "A02010800",
    "addr1": "제주특별자치도 제주시 애월읍 하귀동남2길 40-16",
    "lat": 33.4778338147,
    "lng": 126.4140192709
  },
  {
    "kto_title": "월정리해변(월정리해수욕장)",
    "contentid": "1918639",
    "contenttypeid": "12",
    "contenttype_label": "관광지",
    "cat1": "A01",
    "cat2": "A0101",
    "cat3": "A01011200",
    "addr1": "제주특별자치도 제주시 구좌읍 해맞이해안로 485",
    "lat": 33.555075856,
    "lng": 126.7982424575
  },
  {
    "kto_title": "월정리해안도로",
    "contentid": "2738701",
    "contenttypeid": "12",
    "contenttype_label": "관광지",
    "cat1": "A01",
    "cat2": "A0101",
    "cat3": "A01010500",
    "addr1": "제주특별자치도 제주시 구좌읍 월정리 652-4",
    "lat": 33.5566117438,
    "lng": 126.7949343757
  },
  {
    "kto_title": "월정사(제주)",
    "contentid": "347234",
    "contenttypeid": "12",
    "contenttype_label": "관광지",
    "cat1": "A02",
    "cat2": "A0201",
    "cat3": "A02010800",
    "addr1": "제주특별자치도 제주시 아연로 216-5",
    "lat": 33.4667615657,
    "lng": 126.5100972799
  },
  {
    "kto_title": "월평포구",
    "contentid": "2742257",
    "contenttypeid": "12",
    "contenttype_label": "관광지",
    "cat1": "A01",
    "cat2": "A0101",
    "cat3": "A01011400",
    "addr1": "제주특별자치도 서귀포시 말질로 462",
    "lat": 33.234505941,
    "lng": 126.4637926353
  },
  {
    "kto_title": "위미1리어촌체험마을",
    "contentid": "128330",
    "contenttypeid": "12",
    "contenttype_label": "관광지",
    "cat1": "A02",
    "cat2": "A0203",
    "cat3": "A02030100",
    "addr1": "제주특별자치도 서귀포시 남원읍 위미해안로 43",
    "lat": 33.2710355577,
    "lng": 126.6587526977
  },
  {
    "kto_title": "위미항",
    "contentid": "2740129",
    "contenttypeid": "12",
    "contenttype_label": "관광지",
    "cat1": "A01",
    "cat2": "A0101",
    "cat3": "A01011400",
    "addr1": "제주특별자치도 서귀포시 남원읍 위미중앙로196번길 6-13",
    "lat": 33.2713050304,
    "lng": 126.662391266
  },
  {
    "kto_title": "윗세오름",
    "contentid": "1973369",
    "contenttypeid": "12",
    "contenttype_label": "관광지",
    "cat1": "A01",
    "cat2": "A0101",
    "cat3": "A01010400",
    "addr1": "제주특별자치도 제주시 애월읍 광령리",
    "lat": 33.3608206597,
    "lng": 126.5199599283
  },
  {
    "kto_title": "유수암마을",
    "contentid": "2045014",
    "contenttypeid": "12",
    "contenttype_label": "관광지",
    "cat1": "A02",
    "cat2": "A0203",
    "cat3": "A02030100",
    "addr1": "제주특별자치도 제주시 애월읍 유수암평화길 14",
    "lat": 33.4413793435,
    "lng": 126.4030877096
  },
  {
    "kto_title": "이상한나라의 앨리스",
    "contentid": "780778",
    "contenttypeid": "12",
    "contenttype_label": "관광지",
    "cat1": "A02",
    "cat2": "A0203",
    "cat3": "A02030400",
    "addr1": "제주특별자치도 서귀포시 안덕면 중산간서로 1881",
    "lat": 33.2889726923,
    "lng": 126.3218259602
  },
  {
    "kto_title": "이승이오름 (이승악)",
    "contentid": "2740123",
    "contenttypeid": "12",
    "contenttype_label": "관광지",
    "cat1": "A01",
    "cat2": "A0101",
    "cat3": "A01010400",
    "addr1": "제주특별자치도 서귀포시 남원읍 신례천로 267-110",
    "lat": 33.3140386947,
    "lng": 126.6304291801
  },
  {
    "kto_title": "이중섭 거주지",
    "contentid": "127283",
    "contenttypeid": "12",
    "contenttype_label": "관광지",
    "cat1": "A02",
    "cat2": "A0201",
    "cat3": "A02010700",
    "addr1": "제주특별자치도 서귀포시 이중섭로 29",
    "lat": 33.2455757555,
    "lng": 126.5644169991
  },
  {
    "kto_title": "이중섭거리",
    "contentid": "1620936",
    "contenttypeid": "12",
    "contenttype_label": "관광지",
    "cat1": "A02",
    "cat2": "A0203",
    "cat3": "A02030600",
    "addr1": "제주특별자치도 서귀포시 이중섭로 29 (서귀동)",
    "lat": 33.2455202067,
    "lng": 126.5644697732
  },
  {
    "kto_title": "이호테우해변",
    "contentid": "126448",
    "contenttypeid": "12",
    "contenttype_label": "관광지",
    "cat1": "A01",
    "cat2": "A0101",
    "cat3": "A01011200",
    "addr1": "제주특별자치도 제주시 도리로",
    "lat": 33.4974183784,
    "lng": 126.4531570913
  },
  {
    "kto_title": "일출랜드",
    "contentid": "127857",
    "contenttypeid": "12",
    "contenttype_label": "관광지",
    "cat1": "A02",
    "cat2": "A0202",
    "cat3": "A02020700",
    "addr1": "제주특별자치도 서귀포시 성산읍 중산간동로 4150-30",
    "lat": 33.3811208022,
    "lng": 126.8428064761
  },
  {
    "kto_title": "자구내포구",
    "contentid": "2792595",
    "contenttypeid": "12",
    "contenttype_label": "관광지",
    "cat1": "A01",
    "cat2": "A0101",
    "cat3": "A01011400",
    "addr1": "제주특별자치도 제주시 한경면 노을해안로 1161",
    "lat": 33.309390205,
    "lng": 126.1651502316
  },
  {
    "kto_title": "자구리문화예술공원(자구리공원)",
    "contentid": "2738724",
    "contenttypeid": "12",
    "contenttype_label": "관광지",
    "cat1": "A02",
    "cat2": "A0202",
    "cat3": "A02020700",
    "addr1": "제주특별자치도 서귀포시 칠십리로 120-12 (서귀동)",
    "lat": 33.241942872,
    "lng": 126.5675084795
  },
  {
    "kto_title": "저지문화예술인마을",
    "contentid": "2765268",
    "contenttypeid": "12",
    "contenttype_label": "관광지",
    "cat1": "A02",
    "cat2": "A0203",
    "cat3": "A02030100",
    "addr1": "제주특별자치도 제주시 한경면 저지14길 28-4",
    "lat": 33.3395412444,
    "lng": 126.2671268084
  },
  {
    "kto_title": "저지오름(닥몰오름,새오름)",
    "contentid": "1351196",
    "contenttypeid": "12",
    "contenttype_label": "관광지",
    "cat1": "A01",
    "cat2": "A0101",
    "cat3": "A01010400",
    "addr1": "제주특별자치도 제주시 한경면 중산간서로",
    "lat": 33.3338221918,
    "lng": 126.2517754921
  },
  {
    "kto_title": "전농로 벚꽃거리",
    "contentid": "2778044",
    "contenttypeid": "12",
    "contenttype_label": "관광지",
    "cat1": "A01",
    "cat2": "A0101",
    "cat3": "A01010500",
    "addr1": "제주특별자치도 제주시 삼도일동",
    "lat": 33.5045936021,
    "lng": 126.5171791396
  },
  {
    "kto_title": "절부암",
    "contentid": "228864",
    "contenttypeid": "12",
    "contenttype_label": "관광지",
    "cat1": "A01",
    "cat2": "A0102",
    "cat3": "A01020200",
    "addr1": "제주특별자치도 제주시 한경면 용수리",
    "lat": 33.323827528,
    "lng": 126.167108075
  },
  {
    "kto_title": "점보빌리지",
    "contentid": "987913",
    "contenttypeid": "12",
    "contenttype_label": "관광지",
    "cat1": "A02",
    "cat2": "A0202",
    "cat3": "A02020600",
    "addr1": "제주특별자치도 서귀포시 안덕면 평화로319번길 31-11",
    "lat": 33.2763404987,
    "lng": 126.3055443214
  },
  {
    "kto_title": "정물알오름",
    "contentid": "1926369",
    "contenttypeid": "12",
    "contenttype_label": "관광지",
    "cat1": "A01",
    "cat2": "A0101",
    "cat3": "A01010400",
    "addr1": "제주특별자치도 제주시 한림읍 금악리",
    "lat": 33.3393282866,
    "lng": 126.3249106803
  },
  {
    "kto_title": "정물오름",
    "contentid": "1926379",
    "contenttypeid": "12",
    "contenttype_label": "관광지",
    "cat1": "A01",
    "cat2": "A0101",
    "cat3": "A01010400",
    "addr1": "제주특별자치도 제주시 한림읍 금악리",
    "lat": 33.3380257364,
    "lng": 126.3302158047
  },
  {
    "kto_title": "정방폭포",
    "contentid": "126437",
    "contenttypeid": "12",
    "contenttype_label": "관광지",
    "cat1": "A01",
    "cat2": "A0101",
    "cat3": "A01010800",
    "addr1": "제주특별자치도 서귀포시 칠십리로214번길 37",
    "lat": 33.245039818,
    "lng": 126.571605277
  },
  {
    "kto_title": "정의향교",
    "contentid": "1621147",
    "contenttypeid": "12",
    "contenttype_label": "관광지",
    "cat1": "A02",
    "cat2": "A0201",
    "cat3": "A02010700",
    "addr1": "제주특별자치도 서귀포시 표선면 성읍서문로 14",
    "lat": 33.3869055872,
    "lng": 126.8000850448
  },
  {
    "kto_title": "정의현성",
    "contentid": "1621165",
    "contenttypeid": "12",
    "contenttype_label": "관광지",
    "cat1": "A02",
    "cat2": "A0201",
    "cat3": "A02010200",
    "addr1": "제주특별자치도 서귀포시 표선면 성읍리",
    "lat": 33.3852280274,
    "lng": 126.8021126853
  },
  {
    "kto_title": "제주 글라스하우스",
    "contentid": "2778809",
    "contenttypeid": "12",
    "contenttype_label": "관광지",
    "cat1": "A02",
    "cat2": "A0205",
    "cat3": "A02050600",
    "addr1": "제주특별자치도 서귀포시 성산읍 고성리",
    "lat": 33.4291280857,
    "lng": 126.9340141417
  },
  {
    "kto_title": "제주 노루생태관찰원",
    "contentid": "1672315",
    "contenttypeid": "12",
    "contenttype_label": "관광지",
    "cat1": "A01",
    "cat2": "A0101",
    "cat3": "A01010500",
    "addr1": "제주특별자치도 제주시 명림로 520",
    "lat": 33.4444547805,
    "lng": 126.6266209993
  },
  {
    "kto_title": "제주 당처물동굴 [유네스코 세계자연유산]",
    "contentid": "477920",
    "contenttypeid": "12",
    "contenttype_label": "관광지",
    "cat1": "A01",
    "cat2": "A0101",
    "cat3": "A01011900",
    "addr1": "제주특별자치도 제주시 구좌읍 월정리",
    "lat": 33.5567310147,
    "lng": 126.7850130123
  },
  {
    "kto_title": "제주 동백마을",
    "contentid": "2023350",
    "contenttypeid": "12",
    "contenttype_label": "관광지",
    "cat1": "A02",
    "cat2": "A0203",
    "cat3": "A02030100",
    "addr1": "제주특별자치도 서귀포시 남원읍 한신로531번길 22-1",
    "lat": 33.3203953813,
    "lng": 126.7451829828
  },
  {
    "kto_title": "제주 명도암참살이마을",
    "contentid": "801097",
    "contenttypeid": "12",
    "contenttype_label": "관광지",
    "cat1": "A02",
    "cat2": "A0203",
    "cat3": "A02030100",
    "addr1": "제주특별자치도 제주시 명림로 268-71",
    "lat": 33.4917101568,
    "lng": 126.5948837907
  },
  {
    "kto_title": "제주 무지개해안도로",
    "contentid": "2714306",
    "contenttypeid": "12",
    "contenttype_label": "관광지",
    "cat1": "A01",
    "cat2": "A0101",
    "cat3": "A01010500",
    "addr1": "제주특별자치도 제주시 도두일동 1734",
    "lat": 33.5093895815,
    "lng": 126.4724745846
  },
  {
    "kto_title": "제주 산방산탄산온천",
    "contentid": "128555",
    "contenttypeid": "12",
    "contenttype_label": "관광지",
    "cat1": "A02",
    "cat2": "A0202",
    "cat3": "A02020300",
    "addr1": "제주특별자치도 서귀포시 안덕면 사계북로41번길 192",
    "lat": 33.2489628616,
    "lng": 126.2988482889
  },
  {
    "kto_title": "제주 삼양동 유적",
    "contentid": "129455",
    "contenttypeid": "12",
    "contenttype_label": "관광지",
    "cat1": "A02",
    "cat2": "A0201",
    "cat3": "A02010700",
    "addr1": "제주특별자치도 제주시 선사로2길 13",
    "lat": 33.5232982139,
    "lng": 126.5877975763
  },
  {
    "kto_title": "제주 서귀포 산방산",
    "contentid": "127861",
    "contenttypeid": "12",
    "contenttype_label": "관광지",
    "cat1": "A01",
    "cat2": "A0101",
    "cat3": "A01010400",
    "addr1": "제주특별자치도 서귀포시 안덕면 사계리",
    "lat": 33.2424277101,
    "lng": 126.3140110065
  },
  {
    "kto_title": "제주 성산항",
    "contentid": "2800664",
    "contenttypeid": "12",
    "contenttype_label": "관광지",
    "cat1": "A01",
    "cat2": "A0101",
    "cat3": "A01011400",
    "addr1": "제주특별자치도 서귀포시 성산읍 성산등용로 129-21",
    "lat": 33.4725482235,
    "lng": 126.9299218287
  },
  {
    "kto_title": "제주 성읍마을 고창환 고택",
    "contentid": "1621161",
    "contenttypeid": "12",
    "contenttype_label": "관광지",
    "cat1": "A02",
    "cat2": "A0201",
    "cat3": "A02010400",
    "addr1": "제주특별자치도 서귀포시 표선면 성읍서문로 4-7",
    "lat": 33.387294434,
    "lng": 126.8001350317
  },
  {
    "kto_title": "제주 성읍마을 고평오 고택",
    "contentid": "1621155",
    "contenttypeid": "12",
    "contenttype_label": "관광지",
    "cat1": "A02",
    "cat2": "A0201",
    "cat3": "A02010400",
    "addr1": "제주특별자치도 서귀포시 표선면 성읍정의현로34번길 5-3",
    "lat": 33.3859918271,
    "lng": 126.8018154715
  },
  {
    "kto_title": "제주 센트럴파크",
    "contentid": "128049",
    "contenttypeid": "12",
    "contenttype_label": "관광지",
    "cat1": "A02",
    "cat2": "A0202",
    "cat3": "A02020600",
    "addr1": "제주특별자치도 제주시 조천읍 비자림로 606",
    "lat": 33.4332262333,
    "lng": 126.6745670935
  },
  {
    "kto_title": "제주 스위스마을",
    "contentid": "2763726",
    "contenttypeid": "12",
    "contenttype_label": "관광지",
    "cat1": "A02",
    "cat2": "A0203",
    "cat3": "A02030100",
    "addr1": "제주특별자치도 제주시 조천읍 함와로 566-27",
    "lat": 33.4939389994,
    "lng": 126.6767932932
  },
  {
    "kto_title": "제주 우도 천진항 대합실",
    "contentid": "2798882",
    "contenttypeid": "12",
    "contenttype_label": "관광지",
    "cat1": "A02",
    "cat2": "A0202",
    "cat3": "A02020800",
    "addr1": "제주특별자치도 제주시 우도면 우도해안길 70",
    "lat": 33.4928352215,
    "lng": 126.9515555965
  },
  {
    "kto_title": "제주 청수마을",
    "contentid": "1936339",
    "contenttypeid": "12",
    "contenttype_label": "관광지",
    "cat1": "A02",
    "cat2": "A0203",
    "cat3": "A02030100",
    "addr1": "제주특별자치도 제주시 한경면 대한로 1036",
    "lat": 33.3180683119,
    "lng": 126.24757343
  },
  {
    "kto_title": "제주 토끼섬 문주란 자생지",
    "contentid": "126445",
    "contenttypeid": "12",
    "contenttype_label": "관광지",
    "cat1": "A01",
    "cat2": "A0102",
    "cat3": "A01020100",
    "addr1": "제주특별자치도 제주시 구좌읍 문주란로",
    "lat": 33.520231492,
    "lng": 126.908342042
  },
  {
    "kto_title": "제주4·3평화공원",
    "contentid": "1907801",
    "contenttypeid": "12",
    "contenttype_label": "관광지",
    "cat1": "A02",
    "cat2": "A0202",
    "cat3": "A02020700",
    "addr1": "제주특별자치도 제주시 명림로 430",
    "lat": 33.4498540414,
    "lng": 126.6177605342
  },
  {
    "kto_title": "제주대 벚꽃길",
    "contentid": "2606696",
    "contenttypeid": "12",
    "contenttype_label": "관광지",
    "cat1": "A01",
    "cat2": "A0101",
    "cat3": "A01010500",
    "addr1": "제주특별자치도 제주시 제주대학로 102",
    "lat": 33.4579467077,
    "lng": 126.5624123787
  },
  {
    "kto_title": "제주도 관광특구",
    "contentid": "1957971",
    "contenttypeid": "12",
    "contenttype_label": "관광지",
    "cat1": "A02",
    "cat2": "A0202",
    "cat3": "A02020200",
    "addr1": "제주특별자치도",
    "lat": 33.391158595,
    "lng": 126.4961418675
  },
  {
    "kto_title": "제주도 국가지질공원",
    "contentid": "1162240",
    "contenttypeid": "12",
    "contenttype_label": "관광지",
    "cat1": "A01",
    "cat2": "A0101",
    "cat3": "A01010500",
    "addr1": "제주특별자치도 제주시 조천읍 선교로 569-36",
    "lat": 33.4569020299,
    "lng": 126.7142575546
  },
  {
    "kto_title": "제주도예촌",
    "contentid": "635460",
    "contenttypeid": "12",
    "contenttype_label": "관광지",
    "cat1": "A02",
    "cat2": "A0203",
    "cat3": "A02030400",
    "addr1": "제주특별자치도 서귀포시 대정읍 암반수마농로 433",
    "lat": 33.2651073075,
    "lng": 126.2353895524
  },
  {
    "kto_title": "제주마방목지",
    "contentid": "637212",
    "contenttypeid": "12",
    "contenttype_label": "관광지",
    "cat1": "A02",
    "cat2": "A0203",
    "cat3": "A02030100",
    "addr1": "제주특별자치도 제주시 516로 2480",
    "lat": 33.4276201646,
    "lng": 126.603701149
  },
  {
    "kto_title": "제주맥주",
    "contentid": "2503694",
    "contenttypeid": "12",
    "contenttype_label": "관광지",
    "cat1": "A02",
    "cat2": "A0204",
    "cat3": "A02040600",
    "addr1": "제주특별자치도 제주시 한림읍 금능농공길 62-11",
    "lat": 33.3584804108,
    "lng": 126.2412647465
  },
  {
    "kto_title": "제주별빛누리공원",
    "contentid": "745313",
    "contenttypeid": "12",
    "contenttype_label": "관광지",
    "cat1": "A02",
    "cat2": "A0202",
    "cat3": "A02020700",
    "addr1": "제주특별자치도 제주시 선돌목동길 60 (오등동)",
    "lat": 33.4446063059,
    "lng": 126.5491971626
  },
  {
    "kto_title": "제주불빛정원",
    "contentid": "2479639",
    "contenttypeid": "12",
    "contenttype_label": "관광지",
    "cat1": "A01",
    "cat2": "A0101",
    "cat3": "A01010700",
    "addr1": "제주특별자치도 제주시 애월읍 평화로 2346",
    "lat": 33.4226259562,
    "lng": 126.4089792859
  },
  {
    "kto_title": "제주샘주 양조장",
    "contentid": "2554570",
    "contenttypeid": "12",
    "contenttype_label": "관광지",
    "cat1": "A02",
    "cat2": "A0204",
    "cat3": "A02040600",
    "addr1": "제주특별자치도 제주시 애월읍 애원로 283",
    "lat": 33.44446963,
    "lng": 126.3374100177
  },
  {
    "kto_title": "제주선인장마을",
    "contentid": "636393",
    "contenttypeid": "12",
    "contenttype_label": "관광지",
    "cat1": "A02",
    "cat2": "A0204",
    "cat3": "A02040800",
    "addr1": "제주특별자치도 제주시 한림읍 금능남로 418",
    "lat": 33.3542643935,
    "lng": 126.2529332698
  },
  {
    "kto_title": "제주성지",
    "contentid": "129384",
    "contenttypeid": "12",
    "contenttype_label": "관광지",
    "cat1": "A02",
    "cat2": "A0201",
    "cat3": "A02010200",
    "addr1": "제주특별자치도 제주시 오현길 61",
    "lat": 33.5102931048,
    "lng": 126.5255810579
  },
  {
    "kto_title": "제주아이브리조트",
    "contentid": "2766752",
    "contenttypeid": "12",
    "contenttype_label": "관광지",
    "cat1": "A02",
    "cat2": "A0202",
    "cat3": "A02020200",
    "addr1": "제주특별자치도 서귀포시 산록남로 1966-34 (영남동)",
    "lat": 33.2887088265,
    "lng": 126.4976384869
  },
  {
    "kto_title": "제주양떼목장",
    "contentid": "2791523",
    "contenttypeid": "12",
    "contenttype_label": "관광지",
    "cat1": "A02",
    "cat2": "A0203",
    "cat3": "A02030100",
    "addr1": "제주특별자치도 제주시 애월읍 도치돌길 289-13",
    "lat": 33.4113820644,
    "lng": 126.3652277862
  },
  {
    "kto_title": "제주자연생태공원",
    "contentid": "2755492",
    "contenttypeid": "12",
    "contenttype_label": "관광지",
    "cat1": "A01",
    "cat2": "A0101",
    "cat3": "A01010500",
    "addr1": "제주특별자치도 서귀포시 성산읍 금백조로 448",
    "lat": 33.4387918874,
    "lng": 126.8227318948
  },
  {
    "kto_title": "제주절물자연휴양림",
    "contentid": "127479",
    "contenttypeid": "12",
    "contenttype_label": "관광지",
    "cat1": "A01",
    "cat2": "A0101",
    "cat3": "A01010600",
    "addr1": "제주특별자치도 제주시 명림로 584",
    "lat": 33.4400774642,
    "lng": 126.6252156649
  },
  {
    "kto_title": "제주탐나라공화국",
    "contentid": "2638441",
    "contenttypeid": "12",
    "contenttype_label": "관광지",
    "cat1": "A02",
    "cat2": "A0203",
    "cat3": "A02030400",
    "addr1": "제주특별자치도 제주시 한림읍 한창로 897",
    "lat": 33.3345121647,
    "lng": 126.3256857208
  },
  {
    "kto_title": "제주특별자치도농업기술원서부농업기술센터",
    "contentid": "2863718",
    "contenttypeid": "12",
    "contenttype_label": "관광지",
    "cat1": "A01",
    "cat2": "A0101",
    "cat3": "A01010500",
    "addr1": "제주특별자치도 제주시 월림7길 90 과학영농연구시설",
    "lat": 33.3533894224,
    "lng": 126.2486058878
  },
  {
    "kto_title": "제주항",
    "contentid": "2791511",
    "contenttypeid": "12",
    "contenttype_label": "관광지",
    "cat1": "A01",
    "cat2": "A0101",
    "cat3": "A01011400",
    "addr1": "제주특별자치도 제주시 임항로 111",
    "lat": 33.5200699382,
    "lng": 126.5342384162
  },
  {
    "kto_title": "제주해녀항일운동기념탑",
    "contentid": "1621118",
    "contenttypeid": "12",
    "contenttype_label": "관광지",
    "cat1": "A02",
    "cat2": "A0205",
    "cat3": "A02050200",
    "addr1": "제주특별자치도 제주시 구좌읍 해녀박물관길 26",
    "lat": 33.5225027447,
    "lng": 126.8639930584
  },
  {
    "kto_title": "제주향교",
    "contentid": "127743",
    "contenttypeid": "12",
    "contenttype_label": "관광지",
    "cat1": "A02",
    "cat2": "A0201",
    "cat3": "A02010700",
    "addr1": "제주특별자치도 제주시 서문로 43",
    "lat": 33.5111595204,
    "lng": 126.5158346631
  },
  {
    "kto_title": "제주허브동산",
    "contentid": "128345",
    "contenttypeid": "12",
    "contenttype_label": "관광지",
    "cat1": "A02",
    "cat2": "A0204",
    "cat3": "A02040800",
    "addr1": "제주특별자치도 서귀포시 표선면 돈오름로 170",
    "lat": 33.3304565115,
    "lng": 126.8155933234
  },