[
  {
    "place_name": "(전면취소 ) 2025 제주들불축제, \"우리, 희망을 피우다!\"",
    "lat": 33.3659432,
    "lng": 126.35644,
    "category": "food",
    "is_attraction": false,
    "source": "keyword",
    "kto_matched": false,
    "kto_title": ""
  },
  {
    "place_name": "(주)제주해양레저 투명카약",
    "lat": 33.4582016,
    "lng": 126.910415,
    "category": "unclear",
    "is_attraction": false,
    "source": "unclear",
    "kto_matched": false,
    "kto_title": ""
  },
  {
    "place_name": "1080칼국수",
    "lat": 33.5003337,
    "lng": 126.517785,
    "category": "food",
    "is_attraction": false,
    "source": "keyword",
    "kto_matched": false,
    "kto_title": ""
  },
  {
    "place_name": "1100고지(휴게소)",
    "lat": 33.3577959,
    "lng": 126.4624949,
    "category": "nature",
    "is_attraction": true,
    "source": "kto",
    "kto_matched": true,
    "kto_title": "1100고지습지"
  },
  {
    "place_name": "1100고지습지",
    "lat": 33.3579826,
    "lng": 126.4636327,
    "category": "nature",
    "is_attraction": true,
    "source": "kto",
    "kto_matched": true,
    "kto_title": "1100고지습지"
  },
  {
    "place_name": "1112도로",
    "lat": 33.5042779,
    "lng": 126.519838,
    "category": "unclear",
    "is_attraction": false,
    "source": "unclear",
    "kto_matched": false,
    "kto_title": ""
  },
  {
    "place_name": "1300k 에코브릿지",
    "lat": 33.4715922,
    "lng": 126.782304,
    "category": "unclear",
    "is_attraction": false,
    "source": "unclear",
    "kto_matched": false,
    "kto_title": ""
  },
  {
    "place_name": "1915 지오하우스",
    "lat": 33.4857587,
    "lng": 126.5444543,
    "category": "unclear",
    "is_attraction": false,
    "source": "unclear",
    "kto_matched": false,
    "kto_title": ""
  },
  {
    "place_name": "1950하우스",
    "lat": 33.424906,
    "lng": 126.4093838,
    "category": "unclear",
    "is_attraction": false,
    "source": "unclear",
    "kto_matched": false,
    "kto_title": ""
  },
  {
    "place_name": "2017 제2회 UCLG 문화정상회의",
    "lat": 33.5042779,
    "lng": 126.519838,
    "category": "unclear",
    "is_attraction": false,
    "source": "unclear",
    "kto_matched": false,
    "kto_title": ""
  },
  {
    "place_name": "2022 제3회 제주비엔날레  《움직이는 달, 다가서는 땅》",
    "lat": 33.4703955,
    "lng": 126.4439458,
    "category": "unclear",
    "is_attraction": false,
    "source": "unclear",
    "kto_matched": false,
    "kto_title": ""
  },
  {
    "place_name": "2024 청수 곶자왈 반딧불이 축제",
    "lat": 33.2998172,
    "lng": 126.2615672,
    "category": "nature",
    "is_attraction": true,
    "source": "keyword",
    "kto_matched": false,
    "kto_title": ""
  },
  {
    "place_name": "2025 귀몽",
    "lat": 33.5042779,
    "lng": 126.519838,
    "category": "unclear",
    "is_attraction": false,
    "source": "unclear",
    "kto_matched": false,
    "kto_title": ""
  },
  {
    "place_name": "2025 삼다콘서트",
    "lat": 33.5042779,
    "lng": 126.519838,
    "category": "unclear",
    "is_attraction": false,
    "source": "unclear",
    "kto_matched": false,
    "kto_title": ""
  },
  {
    "place_name": "2025 자청비 봄 와흘메밀 문화제",
    "lat": 33.5042779,
    "lng": 126.519838,
    "category": "food",
    "is_attraction": false,
    "source": "keyword",
    "kto_matched": false,
    "kto_title": ""
  },
  {
    "place_name": "2025 제주푸드앤와인페스티벌",
    "lat": 33.5042779,
    "lng": 126.519838,
    "category": "experience",
    "is_attraction": true,
    "source": "keyword",
    "kto_matched": false,
    "kto_title": ""
  },
  {
    "place_name": "2025년 새연교 음악분수",
    "lat": 33.23747050000001,
    "lng": 126.5597705,
    "category": "history",
    "is_attraction": true,
    "source": "kto",
    "kto_matched": true,
    "kto_title": "새연교"
  },
  {
    "place_name": "2093하우스",
    "lat": 33.4524965,
    "lng": 126.6620975,
    "category": "unclear",
    "is_attraction": false,
    "source": "unclear",
    "kto_matched": false,
    "kto_title": ""
  },
  {
    "place_name": "5.16도로숲터널",
    "lat": 33.3617812,
    "lng": 126.6228875,
    "category": "unclear",
    "is_attraction": false,
    "source": "unclear",
    "kto_matched": false,
    "kto_title": ""
  },
  {
    "place_name": "60빈스",
    "lat": 33.2415408,
    "lng": 126.5367032,
    "category": "unclear",
    "is_attraction": false,
    "source": "unclear",
    "kto_matched": false,
    "kto_title": ""
  },
  {
    "place_name": "73st",
    "lat": 33.4571058,
    "lng": 126.4550379,
    "category": "unclear",
    "is_attraction": false,
    "source": "unclear",
    "kto_matched": false,
    "kto_title": ""
  },
  {
    "place_name": "88버거",
    "lat": 33.2492776,
    "lng": 126.567167,
    "category": "food",
    "is_attraction": false,
    "source": "keyword",
    "kto_matched": false,
    "kto_title": ""
  },
  {
    "place_name": "9.81 파크",
    "lat": 33.3899391,
    "lng": 126.3663248,
    "category": "experience",
    "is_attraction": true,
    "source": "kto",
    "kto_matched": true,
    "kto_title": "9.81 파크 제주"
  },
  {
    "place_name": "943스튜디오",
    "lat": 33.5042779,
    "lng": 126.519838,
    "category": "unclear",
    "is_attraction": false,
    "source": "unclear",
    "kto_matched": false,
    "kto_title": ""
  },
  {
    "place_name": "BK호텔제주",
    "lat": 33.2411078,
    "lng": 126.5643,
    "category": "accommodation",
    "is_attraction": false,
    "source": "keyword",
    "kto_matched": false,
    "kto_title": ""
  },
  {
    "place_name": "B일상잡화점",
    "lat": 33.4620294,
    "lng": 126.9143616,
    "category": "unclear",
    "is_attraction": false,
    "source": "unclear",
    "kto_matched": false,
    "kto_title": ""
  },
  {
    "place_name": "COOK FATHER(쿡파더)",
    "lat": 33.5042779,
    "lng": 126.519838,
    "category": "unclear",
    "is_attraction": false,
    "source": "unclear",
    "kto_matched": false,
    "kto_title": ""
  },
  {
    "place_name": "For 安(포안)",
    "lat": 33.5042779,
    "lng": 126.519838,
    "category": "unclear",
    "is_attraction": false,
    "source": "unclear",
    "kto_matched": false,
    "kto_title": ""
  },
  {
    "place_name": "HAPPY HALLOWEEN 스누피가든 할로윈 이벤트",
    "lat": 33.4441972,
    "lng": 126.7783058,
    "category": "unclear",
    "is_attraction": false,
    "source": "unclear",
    "kto_matched": false,
    "kto_title": ""
  },
  {
    "place_name": "JAY&CHLOE",
    "lat": 33.5042779,
    "lng": 126.519838,
    "category": "unclear",
    "is_attraction": false,
    "source": "unclear",
    "kto_matched": false,
    "kto_title": ""
  },
  {
    "place_name": "JK라마다앙코르 제주연동호텔",
    "lat": 33.4659777,
    "lng": 126.4934011,
    "category": "accommodation",
    "is_attraction": false,
    "source": "keyword",
    "kto_matched": false,
    "kto_title": ""
  },
  {
    "place_name": "Jeju in aA게스트하우스",
    "lat": 33.5350821,
    "lng": 126.8378827,
    "category": "accommodation",
    "is_attraction": false,
    "source": "keyword",
    "kto_matched": false,
    "kto_title": ""
  },
  {
    "place_name": "M1971 요트투어",
    "lat": 33.2099652,
    "lng": 126.2568769,
    "category": "unclear",
    "is_attraction": false,
    "source": "unclear",
    "kto_matched": false,
    "kto_title": ""
  },
  {
    "place_name": "M1971엠브릿지",
    "lat": 33.3785614,
    "lng": 126.5661908,
    "category": "unclear",
    "is_attraction": false,
    "source": "unclear",
    "kto_matched": false,
    "kto_title": ""
  },
  {
    "place_name": "MJ펜션&리조트",
    "lat": 33.5042779,
    "lng": 126.519838,
    "category": "accommodation",
    "is_attraction": false,
    "source": "keyword",
    "kto_matched": false,
    "kto_title": ""
  },
  {
    "place_name": "Osds 협재",
    "lat": 33.3948843,
    "lng": 126.2447997,
    "category": "unclear",
    "is_attraction": false,
    "source": "unclear",
    "kto_matched": false,
    "kto_title": ""
  },
  {
    "place_name": "ROAD129(로드129)",
    "lat": 33.5042779,
    "lng": 126.519838,
    "category": "unclear",
    "is_attraction": false,
    "source": "unclear",
    "kto_matched": false,
    "kto_title": ""
  },
  {
    "place_name": "SM 디지털아트 뮤지엄",
    "lat": 33.4770982,
    "lng": 126.3602203,
    "category": "culture",
    "is_attraction": true,
    "source": "keyword",
    "kto_matched": false,
    "kto_title": ""
  },
  {
    "place_name": "SOS박물관",
    "lat": 33.5042779,
    "lng": 126.519838,
    "category": "culture",
    "is_attraction": true,
    "source": "keyword",
    "kto_matched": false,
    "kto_title": ""
  },
  {
    "place_name": "UDA",
    "lat": 33.2409748,
    "lng": 126.5284777,
    "category": "unclear",
    "is_attraction": false,
    "source": "unclear",
    "kto_matched": false,
    "kto_title": ""
  },
  {
    "place_name": "Untitled,2017",
    "lat": 33.3049026,
    "lng": 126.3159483,
    "category": "unclear",
    "is_attraction": false,
    "source": "unclear",
    "kto_matched": false,
    "kto_title": ""
  },
  {
    "place_name": "WE병원",
    "lat": 33.2862186,
    "lng": 126.4442655,
    "category": "commercial",
    "is_attraction": false,
    "source": "keyword",
    "kto_matched": false,
    "kto_title": ""
  },
  {
    "place_name": "WE호텔 웰니스센터",
    "lat": 33.2861399,
    "lng": 126.4442086,
    "category": "accommodation",
    "is_attraction": false,
    "source": "keyword",
    "kto_matched": false,
    "kto_title": ""
  },
  {
    "place_name": "WE호텔 제주",
    "lat": 33.2861399,
    "lng": 126.4442086,
    "category": "accommodation",
    "is_attraction": false,
    "source": "keyword",
    "kto_matched": false,
    "kto_title": ""
  },
  {
    "place_name": "YOU&I게스트하우스",
    "lat": 33.5350821,
    "lng": 126.8378827,
    "category": "accommodation",
    "is_attraction": false,
    "source": "keyword",
    "kto_matched": false,
    "kto_title": ""
  },
  {
    "place_name": "jival 지발",
    "lat": 33.466159,
    "lng": 126.3349427,
    "category": "unclear",
    "is_attraction": false,
    "source": "unclear",
    "kto_matched": false,
    "kto_title": ""
  },
  {
    "place_name": "kim여사의밥상",
    "lat": 33.5042779,
    "lng": 126.519838,
    "category": "unclear",
    "is_attraction": false,
    "source": "unclear",
    "kto_matched": false,
    "kto_title": ""
  },
  {
    "place_name": "가까이에파도소리",
    "lat": 33.4949292,
    "lng": 126.4249307,
    "category": "unclear",
    "is_attraction": false,
    "source": "unclear",
    "kto_matched": false,
    "kto_title": ""
  },
  {
    "place_name": "가는곶 세화",
    "lat": 33.5205393,
    "lng": 126.8606225,
    "category": "unclear",
    "is_attraction": false,
    "source": "unclear",
    "kto_matched": false,
    "kto_title": ""
  },
  {
    "place_name": "가든이다",
    "lat": 33.2557079,
    "lng": 126.4277874,
    "category": "unclear",
    "is_attraction": false,
    "source": "unclear",
    "kto_matched": false,
    "kto_title": ""
  },
  {
    "place_name": "가마오름",
    "lat": 33.3057036,
    "lng": 126.2466651,
    "category": "nature",
    "is_attraction": true,
    "source": "kto",
    "kto_matched": true,
    "kto_title": "가마오름"
  },
  {
    "place_name": "가마오름 진지동굴(동굴폐쇄, 출입 불가)",
    "lat": 33.3056558,
    "lng": 126.249338,
    "category": "nature",
    "is_attraction": true,
    "source": "kto",
    "kto_matched": true,
    "kto_title": "가마오름"
  },
  {
    "place_name": "가메오름",
    "lat": 33.4992811,
    "lng": 126.5139074,
    "category": "nature",
    "is_attraction": true,
    "source": "keyword",
    "kto_matched": false,
    "kto_title": ""
  },
  {
    "place_name": "가문이오름(감은이오름)",
    "lat": 33.5042779,
    "lng": 126.519838,
    "category": "nature",
    "is_attraction": true,
    "source": "keyword",
    "kto_matched": false,
    "kto_title": ""
  },
  {
    "place_name": "가비오타 펜션",
    "lat": 33.5112132,
    "lng": 126.5394379,
    "category": "accommodation",
    "is_attraction": false,
    "source": "keyword",
    "kto_matched": false,
    "kto_title": ""
  },
  {
    "place_name": "가비오타카페",
    "lat": 33.5112132,
    "lng": 126.5394379,
    "category": "cafe",
    "is_attraction": false,
    "source": "keyword",
    "kto_matched": false,
    "kto_title": ""
  },
  {
    "place_name": "가산토방",
    "lat": 33.287717,
    "lng": 126.5776882,
    "category": "unclear",
    "is_attraction": false,
    "source": "unclear",
    "kto_matched": false,
    "kto_title": ""
  },
  {
    "place_name": "가새기오름",
    "lat": 33.4893618,
    "lng": 126.5038443,
    "category": "nature",
    "is_attraction": true,
    "source": "kto",
    "kto_matched": true,
    "kto_title": "가새기오름"
  },
  {
    "place_name": "가스름식당",
    "lat": 33.3530902,
    "lng": 126.7720128,
    "category": "food",
    "is_attraction": false,
    "source": "keyword",
    "kto_matched": false,
    "kto_title": ""
  },
  {
    "place_name": "가시리조랑말체험공원",
    "lat": 33.3831271,
    "lng": 126.7362573,
    "category": "history",
    "is_attraction": true,
    "source": "kto",
    "kto_matched": true,
    "kto_title": "조랑말체험공원"
  },
  {
    "place_name": "가시림",
    "lat": 33.3610259,
    "lng": 126.7516878,
    "category": "unclear",
    "is_attraction": false,
    "source": "unclear",
    "kto_matched": false,
    "kto_title": ""
  },
  {
    "place_name": "가시식당",
    "lat": 33.3530912,
    "lng": 126.7712412,
    "category": "food",
    "is_attraction": false,
    "source": "keyword",
    "kto_matched": false,
    "kto_title": ""
  },
  {
    "place_name": "가시아방",
    "lat": 33.438616,
    "lng": 126.918065,
    "category": "unclear",
    "is_attraction": false,
    "source": "unclear",
    "kto_matched": false,
    "kto_title": ""
  },
  {
    "place_name": "가이아호텔",
    "lat": 33.4892272,
    "lng": 126.4907915,
    "category": "accommodation",
    "is_attraction": false,
    "source": "keyword",
    "kto_matched": false,
    "kto_title": ""
  },
  {
    "place_name": "가파도",
    "lat": 33.1707573,
    "lng": 126.2726748,
    "category": "nature",
    "is_attraction": true,
    "source": "keyword",
    "kto_matched": false,
    "kto_title": ""
  },
  {
    "place_name": "가파도 마라도 정기여객선",
    "lat": 33.2100901,
    "lng": 126.258429,
    "category": "history",
    "is_attraction": true,
    "source": "kto",
    "kto_matched": true,
    "kto_title": "마라도 가파도 정기여객선"
  },
  {
    "place_name": "가파도 용궁정식",
    "lat": 33.1663761,
    "lng": 126.2730014,
    "category": "food",
    "is_attraction": false,
    "source": "kto+override",
    "kto_matched": true,
    "kto_title": "가파도"
  },
  {
    "place_name": "가파도해물짜장짬뽕",
    "lat": 33.1658576,
    "lng": 126.2733203,
    "category": "nature",
    "is_attraction": true,
    "source": "kto",
    "kto_matched": true,
    "kto_title": "가파도"
  },
  {
    "place_name": "각시바우오름",
    "lat": 33.5042779,
    "lng": 126.519838,
    "category": "nature",
    "is_attraction": true,
    "source": "keyword",
    "kto_matched": false,
    "kto_title": ""
  },
  {
    "place_name": "간이옥돔역",
    "lat": 33.2850777,
    "lng": 126.7497621,
    "category": "unclear",
    "is_attraction": false,
    "source": "unclear",
    "kto_matched": false,
    "kto_title": ""
  },
  {
    "place_name": "갈치공장",
    "lat": 33.5319036,
    "lng": 126.8509992,
    "category": "food",
    "is_attraction": false,
    "source": "keyword",
    "kto_matched": false,
    "kto_title": ""
  },
  {
    "place_name": "감귤박물관",
    "lat": 33.2715236,
    "lng": 126.6076604,
    "category": "culture",
    "is_attraction": true,
    "source": "keyword",
    "kto_matched": false,
    "kto_title": ""
  },
  {
    "place_name": "감귤박물관 감귤따기 체험",
    "lat": 33.2715236,
    "lng": 126.6076604,
    "category": "culture",
    "is_attraction": true,
    "source": "keyword",
    "kto_matched": false,
    "kto_title": ""
  },
  {
    "place_name": "감귤박물관 월라봉 산책로 - 생이소리길",
    "lat": 33.3785614,
    "lng": 126.5661908,
    "category": "nature",
    "is_attraction": true,
    "source": "keyword",
    "kto_matched": false,
    "kto_title": ""
  },
  {
    "place_name": "감귤상웨빵 체험",
    "lat": 33.5042779,
    "lng": 126.519838,
    "category": "experience",
    "is_attraction": true,
    "source": "keyword",
    "kto_matched": false,
    "kto_title": ""
  },
  {
    "place_name": "감따남",
    "lat": 33.2621771,
    "lng": 126.4947524,
    "category": "unclear",
    "is_attraction": false,
    "source": "unclear",
    "kto_matched": false,
    "kto_title": ""
  },
  {
    "place_name": "감미롭다 제주",
    "lat": 33.25705190000001,
    "lng": 126.5246847,
    "category": "unclear",
    "is_attraction": false,
    "source": "unclear",
    "kto_matched": false,
    "kto_title": ""
  },
  {
    "place_name": "감수굴 밭담길",
    "lat": 33.5337352,
    "lng": 126.8424348,
    "category": "unclear",
    "is_attraction": false,
    "source": "unclear",
    "kto_matched": false,
    "kto_title": ""
  },
  {
    "place_name": "감저카페",
    "lat": 33.2295719,
    "lng": 126.2453476,
    "category": "cafe",
    "is_attraction": false,
    "source": "keyword",
    "kto_matched": false,
    "kto_title": ""
  },
  {
    "place_name": "갑자기 히어로즈 벽화길",
    "lat": 33.4468277,
    "lng": 126.2995018,
    "category": "unclear",
    "is_attraction": false,
    "source": "unclear",
    "kto_matched": false,
    "kto_title": ""
  },
  {
    "place_name": "갓전시관[갓전수교육관]",
    "lat": 33.4371898,
    "lng": 126.6706154,
    "category": "food",
    "is_attraction": false,
    "source": "keyword",
    "kto_matched": false,
    "kto_title": ""
  },
  {
    "place_name": "갓포하루",
    "lat": 33.2522906,
    "lng": 126.4258113,
    "category": "unclear",
    "is_attraction": false,
    "source": "unclear",
    "kto_matched": false,
    "kto_title": ""
  },
  {
    "place_name": "강병대교회",
    "lat": 33.2266523,
    "lng": 126.2574245,
    "category": "religious",
    "is_attraction": true,
    "source": "keyword",
    "kto_matched": false,
    "kto_title": ""
  },
  {
    "place_name": "강정어촌계",
    "lat": 33.5042779,
    "lng": 126.519838,
    "category": "food",
    "is_attraction": false,
    "source": "keyword",
    "kto_matched": false,
    "kto_title": ""
  },
  {
    "place_name": "강정천유원지",
    "lat": 33.2325183,
    "lng": 126.4889562,
    "category": "unclear",
    "is_attraction": false,
    "source": "unclear",
    "kto_matched": false,
    "kto_title": ""
  },
  {
    "place_name": "강정해녀의집",
    "lat": 33.2291804,
    "lng": 126.4758516,
    "category": "nature",
    "is_attraction": true,
    "source": "kto",
    "kto_matched": true,
    "kto_title": "강정포구"
  },
  {
    "place_name": "강창학 종합경기장",
    "lat": 33.2602911,
    "lng": 126.5018455,
    "category": "unclear",
    "is_attraction": false,
    "source": "unclear",
    "kto_matched": false,
    "kto_title": ""
  },
  {
    "place_name": "강해일횟집",
    "lat": 33.3257056,
    "lng": 126.8443956,
    "category": "food",
    "is_attraction": false,
    "source": "keyword",
    "kto_matched": false,
    "kto_title": ""
  },
  {
    "place_name": "개오름",
    "lat": 33.4227657,
    "lng": 126.7719721,
    "category": "nature",
    "is_attraction": true,
    "source": "keyword",
    "kto_matched": false,
    "kto_title": ""
  },
  {
    "place_name": "객의하우스",
    "lat": 33.3966929,
    "lng": 126.2433892,
    "category": "unclear",
    "is_attraction": false,
    "source": "unclear",
    "kto_matched": false,
    "kto_title": ""
  },
  {
    "place_name": "갤러리 라운지",
    "lat": 33.4852786,
    "lng": 126.4814609,
    "category": "culture",
    "is_attraction": true,
    "source": "keyword",
    "kto_matched": false,
    "kto_title": ""
  },
  {
    "place_name": "갤러리 호텔 비앤비",
    "lat": 33.4874884,
    "lng": 126.4926144,
    "category": "accommodation",
    "is_attraction": false,
    "source": "keyword",
    "kto_matched": false,
    "kto_title": ""
  },
  {
    "place_name": "갤러리2 중선농원",
    "lat": 33.4781064,
    "lng": 126.5704625,
    "category": "culture",
    "is_attraction": true,
    "source": "keyword",
    "kto_matched": false,
    "kto_title": ""
  },
  {
    "place_name": "갤러리앤카페고팡",
    "lat": 33.512215,
    "lng": 126.5271214,
    "category": "cafe",
    "is_attraction": false,
    "source": "keyword",
    "kto_matched": false,
    "kto_title": ""
  },
  {
    "place_name": "갯것이식당",
    "lat": 33.5033429,
    "lng": 126.53718,
    "category": "food",
    "is_attraction": false,
    "source": "keyword",
    "kto_matched": false,
    "kto_title": ""
  },
  {
    "place_name": "갯깍주상절리",
    "lat": 33.2412077,
    "lng": 126.3972753,
    "category": "unclear",
    "is_attraction": false,
    "source": "unclear",
    "kto_matched": false,
    "kto_title": ""
  },
  {
    "place_name": "거닐다",
    "lat": 33.5042779,
    "lng": 126.519838,
    "category": "unclear",
    "is_attraction": false,
    "source": "unclear",
    "kto_matched": false,
    "kto_title": ""
  },
  {
    "place_name": "거드락지민박",
    "lat": 33.5042779,
    "lng": 126.519838,
    "category": "accommodation",
    "is_attraction": false,
    "source": "keyword",
    "kto_matched": false,
    "kto_title": ""
  },
  {
    "place_name": "거린오름 (북오름)",
    "lat": 33.3027778,
    "lng": 126.3313889,
    "category": "nature",
    "is_attraction": true,
    "source": "keyword",
    "kto_matched": false,
    "kto_title": ""
  },
  {
    "place_name": "거멍국수",
    "lat": 33.2443306,
    "lng": 126.3044478,
    "category": "food",
    "is_attraction": false,
    "source": "keyword",
    "kto_matched": false,
    "kto_title": ""
  },
  {
    "place_name": "거문오름(UNESCO 세계자연유산)",
    "lat": 33.4546419,
    "lng": 126.7179249,
    "category": "nature",
    "is_attraction": true,
    "source": "keyword",
    "kto_matched": false,
    "kto_title": ""
  },
  {
    "place_name": "거믄여해안경승지",
    "lat": 33.2430275,
    "lng": 126.5816759,
    "category": "nature",
    "is_attraction": true,
    "source": "keyword",
    "kto_matched": false,
    "kto_title": ""
  },
  {
    "place_name": "거부한정식(신제주점)",
    "lat": 33.2433333,
    "lng": 126.5597222,
    "category": "food",
    "is_attraction": false,
    "source": "keyword",
    "kto_matched": false,
    "kto_title": ""
  },
  {
    "place_name": "거슨새미오름",
    "lat": 33.4513006,
    "lng": 126.7605342,
    "category": "nature",
    "is_attraction": true,
    "source": "kto",
    "kto_matched": true,
    "kto_title": "거슨새미오름"
  },
  {
    "place_name": "거인의 정원",
    "lat": 33.471838,
    "lng": 126.5353242,
    "category": "experience",
    "is_attraction": true,
    "source": "keyword",
    "kto_matched": false,
    "kto_title": ""
  },
  {
    "place_name": "거친오름",
    "lat": 33.4458346,
    "lng": 126.6203525,
    "category": "nature",
    "is_attraction": true,
    "source": "keyword",
    "kto_matched": false,
    "kto_title": ""
  },
  {
    "place_name": "건강과성박물관",
    "lat": 33.2546582,
    "lng": 126.3467011,
    "category": "culture",
    "is_attraction": true,
    "source": "keyword",
    "kto_matched": false,
    "kto_title": ""
  },
  {
    "place_name": "건달다방",
    "lat": 33.5042779,
    "lng": 126.519838,
    "category": "unclear",
    "is_attraction": false,
    "source": "unclear",
    "kto_matched": false,
    "kto_title": ""
  },
  {
    "place_name": "건축학개론펜션",
    "lat": 33.3785614,
    "lng": 126.5661908,
    "category": "accommodation",
    "is_attraction": false,
    "source": "keyword",
    "kto_matched": false,
    "kto_title": ""
  },
  {
    "place_name": "걸매생태공원",
    "lat": 33.2499864,
    "lng": 126.5551498,
    "category": "nature",
    "is_attraction": true,
    "source": "kto",
    "kto_matched": true,
    "kto_title": "천지연 걸매생태공원"
  },
  {
    "place_name": "걸매예술마을",
    "lat": 33.2494907,
    "lng": 126.5574199,
    "category": "unclear",
    "is_attraction": false,
    "source": "unclear",
    "kto_matched": false,
    "kto_title": ""
  },
  {
    "place_name": "걸서악(서걸세,걸세오름)",
    "lat": 33.2819598,
    "lng": 126.6198759,
    "category": "nature",
    "is_attraction": true,
    "source": "keyword",
    "kto_matched": false,
    "kto_title": ""
  },
  {
    "place_name": "걸서악오름",
    "lat": 33.2819598,
    "lng": 126.6198759,
    "category": "nature",
    "is_attraction": true,
    "source": "keyword",
    "kto_matched": false,
    "kto_title": ""
  },
  {
    "place_name": "검멀레동굴",
    "lat": 33.4972931,
    "lng": 126.9671356,
    "category": "nature",
    "is_attraction": true,
    "source": "keyword",
    "kto_matched": false,
    "kto_title": ""
  },
  {
    "place_name": "검멀레해변",
    "lat": 33.4972931,
    "lng": 126.9671356,
    "category": "nature",
    "is_attraction": true,
    "source": "keyword",
    "kto_matched": false,
    "kto_title": ""
  },
  {
    "place_name": "검은오름",
    "lat": 33.4421218,
    "lng": 126.4990315,
    "category": "nature",
    "is_attraction": true,
    "source": "keyword",
    "kto_matched": false,
    "kto_title": ""
  },
  {
    "place_name": "게스트하우스7",
    "lat": 33.508918,
    "lng": 126.511202,
    "category": "accommodation",
    "is_attraction": false,
    "source": "keyword",
    "kto_matched": false,
    "kto_title": ""
  },
  {
    "place_name": "게우지코지",
    "lat": 33.2438505,
    "lng": 126.6186661,
    "category": "unclear",
    "is_attraction": false,
    "source": "unclear",
    "kto_matched": false,
    "kto_title": ""
  },
  {
    "place_name": "게으르게",
    "lat": 33.5432917,
    "lng": 126.6545303,
    "category": "unclear",
    "is_attraction": false,
    "source": "unclear",
    "kto_matched": false,
    "kto_title": ""
  },
  {
    "place_name": "게으른소나기",
    "lat": 33.538828,
    "lng": 126.8338733,
    "category": "unclear",
    "is_attraction": false,
    "source": "unclear",
    "kto_matched": false,
    "kto_title": ""
  },
  {
    "place_name": "겹겹의 의도",
    "lat": 33.4811179,
    "lng": 126.4763753,
    "category": "unclear",
    "is_attraction": false,
    "source": "unclear",
    "kto_matched": false,
    "kto_title": ""
  },
  {
    "place_name": "경미네집(경미휴게소)",
    "lat": 33.4612157,
    "lng": 126.9334624,
    "category": "unclear",
    "is_attraction": false,
    "source": "unclear",
    "kto_matched": false,
    "kto_title": ""
  },
  {
    "place_name": "고가네",
    "lat": 33.4980159,
    "lng": 126.5292925,
    "category": "unclear",
    "is_attraction": false,
    "source": "unclear",
    "kto_matched": false,
    "kto_title": ""
  },
  {
    "place_name": "고객식당",
    "lat": 33.5116895,
    "lng": 126.5259174,
    "category": "food",
    "is_attraction": false,
    "source": "keyword",
    "kto_matched": false,
    "kto_title": ""
  },
  {
    "place_name": "고근산(고공산)",
    "lat": 33.2662629,
    "lng": 126.5138442,
    "category": "nature",
    "is_attraction": true,
    "source": "kto",
    "kto_matched": true,
    "kto_title": "고근산"
  },
  {
    "place_name": "고내리 다락쉼터",
    "lat": 33.4699842,
    "lng": 126.3403826,
    "category": "unclear",
    "is_attraction": false,
    "source": "unclear",
    "kto_matched": false,
    "kto_title": ""
  },
  {
    "place_name": "고내리포구",
    "lat": 33.4630284,
    "lng": 126.3384173,
    "category": "nature",
    "is_attraction": true,
    "source": "keyword",
    "kto_matched": false,
    "kto_title": ""
  },
  {
    "place_name": "고내봉(고내오름,고니오름,망오름)",
    "lat": 33.4591265,
    "lng": 126.3418004,
    "category": "nature",
    "is_attraction": true,
    "source": "keyword",
    "kto_matched": false,
    "kto_title": ""
  },
  {
    "place_name": "고내촌한정식",
    "lat": 33.4695811,
    "lng": 126.3463509,
    "category": "food",
    "is_attraction": false,
    "source": "keyword",
    "kto_matched": false,
    "kto_title": ""
  },
  {
    "place_name": "고래라면",
    "lat": 33.3719362,
    "lng": 126.8584604,
    "category": "food",
    "is_attraction": false,
    "source": "keyword",
    "kto_matched": false,
    "kto_title": ""
  },
  {
    "place_name": "고마워토토 아뜰리에",
    "lat": 33.4700255,
    "lng": 126.4133815,
    "category": "history",
    "is_attraction": true,
    "source": "kto",
    "kto_matched": true,
    "kto_title": "토토아뜰리에"
  },
  {
    "place_name": "고불락",
    "lat": 33.466741,
    "lng": 126.3366581,
    "category": "unclear",
    "is_attraction": false,
    "source": "unclear",
    "kto_matched": false,
    "kto_title": ""
  },
  {
    "place_name": "고사리숲",
    "lat": 33.5034145,
    "lng": 126.5333283,
    "category": "unclear",
    "is_attraction": false,
    "source": "unclear",
    "kto_matched": false,
    "kto_title": ""
  },
  {
    "place_name": "고사리식당",
    "lat": 33.45285520000001,
    "lng": 126.7082198,
    "category": "food",
    "is_attraction": false,
    "source": "keyword",
    "kto_matched": false,
    "kto_title": ""
  },
  {
    "place_name": "고사리커피",
    "lat": 33.4733531,
    "lng": 126.7642818,
    "category": "cafe",
    "is_attraction": false,
    "source": "keyword",
    "kto_matched": false,
    "kto_title": ""
  },
  {
    "place_name": "고산일과해안도로",
    "lat": 33.5170488,
    "lng": 126.5033901,
    "category": "nature",
    "is_attraction": true,
    "source": "keyword",
    "kto_matched": false,
    "kto_title": ""
  },
  {
    "place_name": "고살리숲길",
    "lat": 33.3163888,
    "lng": 126.5973999,
    "category": "nature",
    "is_attraction": true,
    "source": "kto",
    "kto_matched": true,
    "kto_title": "고살리 숲길"
  },
  {
    "place_name": "고서방해물탕",
    "lat": 33.2097895,
    "lng": 126.2914928,
    "category": "food",
    "is_attraction": false,
    "source": "keyword",
    "kto_matched": false,
    "kto_title": ""
  },
  {
    "place_name": "고수목마식당",
    "lat": 33.5042779,
    "lng": 126.519838,
    "category": "food",
    "is_attraction": false,
    "source": "keyword",
    "kto_matched": false,
    "kto_title": ""
  },
  {
    "place_name": "고씨네천지국수",
    "lat": 33.2517586,
    "lng": 126.5607908,
    "category": "food",
    "is_attraction": false,
    "source": "keyword",
    "kto_matched": false,
    "kto_title": ""
  },
  {
    "place_name": "고씨주택(사랑방, 책방)",
    "lat": 33.5149744,
    "lng": 126.5283867,
    "category": "unclear",
    "is_attraction": false,
    "source": "unclear",
    "kto_matched": false,
    "kto_title": ""
  },
  {
    "place_name": "고집돌우럭(제주공항점)",
    "lat": 33.5163089,
    "lng": 126.528071,
    "category": "unclear",
    "is_attraction": false,
    "source": "unclear",
    "kto_matched": false,
    "kto_title": ""
  },
  {
    "place_name": "고집돌우럭(중문)",
    "lat": 33.2579173,
    "lng": 126.4168242,
    "category": "unclear",
    "is_attraction": false,
    "source": "unclear",
    "kto_matched": false,
    "kto_title": ""
  },
  {
    "place_name": "고흐의 정원",
    "lat": 33.373654,
    "lng": 126.8439927,
    "category": "experience",
    "is_attraction": true,
    "source": "keyword",
    "kto_matched": false,
    "kto_title": ""
  },
  {
    "place_name": "곤경에빠진버거",
    "lat": 33.4035709,
    "lng": 126.7804804,
    "category": "food",
    "is_attraction": false,
    "source": "keyword",
    "kto_matched": false,
    "kto_title": ""
  },
  {
    "place_name": "곤물",
    "lat": 33.2518664,
    "lng": 126.332911,
    "category": "unclear",
    "is_attraction": false,
    "source": "unclear",
    "kto_matched": false,
    "kto_title": ""
  },
  {
    "place_name": "곤흘동(곤을동) 마을터",
    "lat": 33.52113,
    "lng": 126.5581264,
    "category": "unclear",
    "is_attraction": false,
    "source": "unclear",
    "kto_matched": false,
    "kto_title": ""
  },
  {
    "place_name": "골드원호텔 & 스위트",
    "lat": 33.5042779,
    "lng": 126.519838,
    "category": "accommodation",
    "is_attraction": false,
    "source": "keyword",
    "kto_matched": false,
    "kto_title": ""
  },
  {
    "place_name": "골든비치",
    "lat": 33.5186219,
    "lng": 126.4912296,
    "category": "unclear",
    "is_attraction": false,
    "source": "unclear",
    "kto_matched": false,
    "kto_title": ""
  },
  {
    "place_name": "골든튤립호텔",
    "lat": 33.4479486,
    "lng": 126.9162124,
    "category": "accommodation",
    "is_attraction": false,
    "source": "keyword",
    "kto_matched": false,
    "kto_title": ""
  },
  {
    "place_name": "골든파크호텔",
    "lat": 33.4992358,
    "lng": 126.5130334,
    "category": "accommodation",
    "is_attraction": false,
    "source": "keyword",
    "kto_matched": false,
    "kto_title": ""
  },
  {
    "place_name": "골막식당",
    "lat": 33.502473,
    "lng": 126.538417,
    "category": "food",
    "is_attraction": false,
    "source": "keyword",
    "kto_matched": false,
    "kto_title": ""
  },
  {
    "place_name": "골머리 (洞山, 笏頭岳, 아흔아홉골)",
    "lat": 33.5042779,
    "lng": 126.519838,
    "category": "unclear",
    "is_attraction": false,
    "source": "unclear",
    "kto_matched": false,
    "kto_title": ""
  },
  {
    "place_name": "골목시장",
    "lat": 33.5042779,
    "lng": 126.519838,
    "category": "unclear",
    "is_attraction": false,
    "source": "unclear",
    "kto_matched": false,
    "kto_title": ""
  },
  {
    "place_name": "골목집갈치와고등어",
    "lat": 33.3252664,
    "lng": 126.8380088,
    "category": "food",
    "is_attraction": false,
    "source": "keyword",
    "kto_matched": false,
    "kto_title": ""
  },
  {
    "place_name": "골목카페옥수",
    "lat": 33.4398656,
    "lng": 126.3800136,
    "category": "cafe",
    "is_attraction": false,
    "source": "keyword",
    "kto_matched": false,
    "kto_title": ""
  },
  {
    "place_name": "골프탕탕",
    "lat": 33.5042779,
    "lng": 126.519838,
    "category": "food",
    "is_attraction": false,
    "source": "keyword",
    "kto_matched": false,
    "kto_title": ""
  },
  {
    "place_name": "곰막식당",
    "lat": 33.556821,
    "lng": 126.720503,
    "category": "food",
    "is_attraction": false,
    "source": "keyword",
    "kto_matched": false,
    "kto_title": ""
  },
  {
    "place_name": "곱들락",
    "lat": 33.5394514,
    "lng": 126.6704512,
    "category": "unclear",
    "is_attraction": false,
    "source": "unclear",
    "kto_matched": false,
    "kto_title": ""
  },
  {
    "place_name": "곱은과일",
    "lat": 33.5127762,
    "lng": 126.5278363,
    "category": "unclear",
    "is_attraction": false,
    "source": "unclear",
    "kto_matched": false,
    "kto_title": ""
  },
  {
    "place_name": "곱은달사진관",
    "lat": 33.513688,
    "lng": 126.6710737,
    "category": "unclear",
    "is_attraction": false,
    "source": "unclear",
    "kto_matched": false,
    "kto_title": ""
  },
  {
    "place_name": "공단해장국",
    "lat": 33.4882636,
    "lng": 126.5278253,
    "category": "unclear",
    "is_attraction": false,
    "source": "unclear",
    "kto_matched": false,
    "kto_title": ""
  },
  {
    "place_name": "공방:하루_반",
    "lat": 33.554379,
    "lng": 126.7972968,
    "category": "unclear",
    "is_attraction": false,
    "source": "unclear",
    "kto_matched": false,
    "kto_title": ""
  },
  {
    "place_name": "공백",
    "lat": 33.5535179,
    "lng": 126.7151174,
    "category": "unclear",
    "is_attraction": false,
    "source": "unclear",
    "kto_matched": false,
    "kto_title": ""
  },
  {
    "place_name": "공주네국수",
    "lat": 33.4913827,
    "lng": 126.5937948,
    "category": "food",
    "is_attraction": false,
    "source": "keyword",
    "kto_matched": false,
    "kto_title": ""
  },
  {
    "place_name": "공천포",
    "lat": 33.2657896,
    "lng": 126.6433169,
    "category": "unclear",
    "is_attraction": false,
    "source": "unclear",
    "kto_matched": false,
    "kto_title": ""
  },
  {
    "place_name": "공천포구",
    "lat": 33.2631835,
    "lng": 126.641713,
    "category": "nature",
    "is_attraction": true,
    "source": "keyword",
    "kto_matched": false,
    "kto_title": ""
  },
  {
    "place_name": "공천포식당",
    "lat": 33.2664055,
    "lng": 126.6426731,
    "category": "food",
    "is_attraction": false,
    "source": "keyword",
    "kto_matched": false,
    "kto_title": ""
  },
  {
    "place_name": "곶자왈",
    "lat": 33.2863085,
    "lng": 126.2707695,
    "category": "nature",
    "is_attraction": true,
    "source": "keyword",
    "kto_matched": false,
    "kto_title": ""
  },
  {
    "place_name": "과오름(큰오름, 샛오름, 말젯오름)",
    "lat": 33.4455454,
    "lng": 126.3231083,
    "category": "nature",
    "is_attraction": true,
    "source": "keyword",
    "kto_matched": false,
    "kto_title": ""
  },
  {
    "place_name": "곽지레저 & 서프나우[폐업]",
    "lat": 33.4491254,
    "lng": 126.3040889,
    "category": "unclear",
    "is_attraction": false,
    "source": "unclear",
    "kto_matched": false,
    "kto_title": ""
  },
  {
    "place_name": "곽지박사장&김사장네",
    "lat": 33.450902,
    "lng": 126.3057298,
    "category": "unclear",
    "is_attraction": false,
    "source": "unclear",
    "kto_matched": false,
    "kto_title": ""
  },
  {
    "place_name": "곽지식당",
    "lat": 33.4477377,
    "lng": 126.3045517,
    "category": "food",
    "is_attraction": false,
    "source": "kto+override",
    "kto_matched": true,
    "kto_title": "곽지해수욕장"
  },
  {
    "place_name": "곽지해수욕장",
    "lat": 33.450902,
    "lng": 126.3057298,
    "category": "nature",
    "is_attraction": true,
    "source": "keyword",
    "kto_matched": false,
    "kto_title": ""
  },
  {
    "place_name": "곽지해수욕장야영장",
    "lat": 33.450902,
    "lng": 126.3057298,
    "category": "accommodation",
    "is_attraction": false,
    "source": "keyword",
    "kto_matched": false,
    "kto_title": ""
  },
  {
    "place_name": "관덕정",
    "lat": 33.513345,
    "lng": 126.521532,
    "category": "history",
    "is_attraction": true,
    "source": "kto",
    "kto_matched": true,
    "kto_title": "관덕정(제주)"
  },
  {
    "place_name": "관음사",
    "lat": 33.4237461,
    "lng": 126.5579748,
    "category": "history",
    "is_attraction": true,
    "source": "kto",
    "kto_matched": true,
    "kto_title": "관음사(제주)"
  },
  {
    "place_name": "관음사 야영장",
    "lat": 33.4221064,
    "lng": 126.5505596,
    "category": "experience",
    "is_attraction": true,
    "source": "kto",
    "kto_matched": true,
    "kto_title": "관음사야영장"
  },
  {
    "place_name": "관음사 템플스테이",
    "lat": 33.4237461,
    "lng": 126.5579748,
    "category": "history",
    "is_attraction": true,
    "source": "kto",
    "kto_matched": true,
    "kto_title": "관음사(제주)"
  },
  {
    "place_name": "광어다",
    "lat": 33.3039639,
    "lng": 126.8089208,
    "category": "unclear",
    "is_attraction": false,
    "source": "unclear",
    "kto_matched": false,
    "kto_title": ""
  },
  {
    "place_name": "광원",
    "lat": 33.4726272,
    "lng": 126.484759,
    "category": "unclear",
    "is_attraction": false,
    "source": "unclear",
    "kto_matched": false,
    "kto_title": ""
  },
  {
    "place_name": "광치기해변",
    "lat": 33.4524173,
    "lng": 126.9246894,
    "category": "nature",
    "is_attraction": true,
    "source": "kto",
    "kto_matched": true,
    "kto_title": "광치기해변"
  },
  {
    "place_name": "광평도새기촌 본점",
    "lat": 33.4792685,
    "lng": 126.3810461,
    "category": "food",
    "is_attraction": false,
    "source": "keyword",
    "kto_matched": false,
    "kto_title": ""
  },
  {
    "place_name": "괸당네식당",
    "lat": 33.3847353,
    "lng": 126.8022002,
    "category": "food",
    "is_attraction": false,
    "source": "keyword",
    "kto_matched": false,
    "kto_title": ""
  },
  {
    "place_name": "굄",
    "lat": 33.4989964,
    "lng": 126.5482144,
    "category": "unclear",
    "is_attraction": false,
    "source": "unclear",
    "kto_matched": false,
    "kto_title": ""
  },
  {
    "place_name": "교래손칼국수",
    "lat": 33.4180631,
    "lng": 126.6534847,
    "category": "food",
    "is_attraction": false,
    "source": "keyword",
    "kto_matched": false,
    "kto_title": ""
  },
  {
    "place_name": "교래아름가든",
    "lat": 33.4357179,
    "lng": 126.6789084,
    "category": "unclear",
    "is_attraction": false,
    "source": "unclear",
    "kto_matched": false,
    "kto_title": ""
  },
  {
    "place_name": "교래자연휴양림",
    "lat": 33.4417685,
    "lng": 126.6666615,
    "category": "experience",
    "is_attraction": true,
    "source": "keyword",
    "kto_matched": false,
    "kto_title": ""
  },
  {
    "place_name": "교래퐁낭",
    "lat": 33.4259809,
    "lng": 126.6741881,
    "category": "unclear",
    "is_attraction": false,
    "source": "unclear",
    "kto_matched": false,
    "kto_title": ""
  },
  {
    "place_name": "교래흑돼지",
    "lat": 33.4237648,
    "lng": 126.6751541,
    "category": "food",
    "is_attraction": false,
    "source": "keyword",
    "kto_matched": false,
    "kto_title": ""
  },
  {
    "place_name": "구닮카페(구름을닮다)",
    "lat": 33.2364435,
    "lng": 126.3127762,
    "category": "cafe",
    "is_attraction": false,
    "source": "keyword",
    "kto_matched": false,
    "kto_title": ""
  },
  {
    "place_name": "구덕게스트하우스",
    "lat": 33.244075,
    "lng": 126.5623778,
    "category": "accommodation",
    "is_attraction": false,
    "source": "keyword",
    "kto_matched": false,
    "kto_title": ""
  },
  {
    "place_name": "구름밭하우스",
    "lat": 33.5216284,
    "lng": 126.8967051,
    "category": "unclear",
    "is_attraction": false,
    "source": "unclear",
    "kto_matched": false,
    "kto_title": ""
  },
  {
    "place_name": "구엄리돌염전",
    "lat": 33.4835042,
    "lng": 126.3764434,
    "category": "nature",
    "is_attraction": true,
    "source": "kto",
    "kto_matched": true,
    "kto_title": "구엄포구"
  },
  {
    "place_name": "구엄포구",
    "lat": 33.4843579,
    "lng": 126.3763597,
    "category": "nature",
    "is_attraction": true,
    "source": "kto",
    "kto_matched": true,
    "kto_title": "구엄포구"
  },
  {
    "place_name": "구좌상회",
    "lat": 33.4855915,
    "lng": 126.6988096,
    "category": "unclear",
    "is_attraction": false,
    "source": "unclear",
    "kto_matched": false,
    "kto_title": ""
  },
  {
    "place_name": "구좌해안로",
    "lat": 33.5571857,
    "lng": 126.7273214,
    "category": "nature",
    "is_attraction": true,
    "source": "keyword",
    "kto_matched": false,
    "kto_title": ""
  },
  {
    "place_name": "국립제주박물관",
    "lat": 33.5133428,
    "lng": 126.5488784,
    "category": "culture",
    "is_attraction": true,
    "source": "keyword",
    "kto_matched": false,
    "kto_title": ""
  },
  {
    "place_name": "국수마당 본점",
    "lat": 33.5080638,
    "lng": 126.5322532,
    "category": "food",
    "is_attraction": false,
    "source": "keyword",
    "kto_matched": false,
    "kto_title": ""
  },
  {
    "place_name": "국수바다 본점",
    "lat": 33.253023,
    "lng": 126.447197,
    "category": "food",
    "is_attraction": false,
    "source": "keyword",
    "kto_matched": false,
    "kto_title": ""
  },
  {
    "place_name": "국수의전설",
    "lat": 33.2634697,
    "lng": 126.6104251,
    "category": "food",
    "is_attraction": false,
    "source": "keyword",
    "kto_matched": false,
    "kto_title": ""
  },
  {
    "place_name": "국수장터",
    "lat": 33.5027674,
    "lng": 126.5341996,
    "category": "food",
    "is_attraction": false,
    "source": "keyword",
    "kto_matched": false,
    "kto_title": ""
  },
  {
    "place_name": "국시트멍",
    "lat": 33.4793473,
    "lng": 126.4813944,
    "category": "unclear",
    "is_attraction": false,
    "source": "unclear",
    "kto_matched": false,
    "kto_title": ""
  },
  {
    "place_name": "군산(군산오름,코메오름)",
    "lat": 35.97961340000001,
    "lng": 126.7155958,
    "category": "nature",
    "is_attraction": true,
    "source": "keyword",
    "kto_matched": false,
    "kto_title": ""
  },
  {
    "place_name": "굴동포구",
    "lat": 33.522883,
    "lng": 126.8982103,
    "category": "nature",
    "is_attraction": true,
    "source": "keyword",
    "kto_matched": false,
    "kto_title": ""
  },
  {
    "place_name": "굿데이 펜션",
    "lat": 33.2425761,
    "lng": 126.5527273,
    "category": "accommodation",
    "is_attraction": false,
    "source": "keyword",
    "kto_matched": false,
    "kto_title": ""
  },
  {
    "place_name": "궁대오름(궁대악)",
    "lat": 33.4354307,
    "lng": 126.8236121,
    "category": "nature",
    "is_attraction": true,
    "source": "keyword",
    "kto_matched": false,
    "kto_title": ""
  },
  {
    "place_name": "귀덕연대",
    "lat": 33.4418592,
    "lng": 126.2933748,
    "category": "unclear",
    "is_attraction": false,
    "source": "unclear",
    "kto_matched": false,
    "kto_title": ""
  },
  {
    "place_name": "귀빈사",
    "lat": 33.4429016,
    "lng": 126.7613249,
    "category": "unclear",
    "is_attraction": false,
    "source": "unclear",
    "kto_matched": false,
    "kto_title": ""
  },
  {
    "place_name": "귤귤스토어 애월점(폐업)",
    "lat": 33.4633065,
    "lng": 126.3100205,
    "category": "unclear",
    "is_attraction": false,
    "source": "unclear",
    "kto_matched": false,
    "kto_title": ""
  },
  {
    "place_name": "귤꽃",
    "lat": 33.5384182,
    "lng": 126.6553221,
    "category": "unclear",
    "is_attraction": false,
    "source": "unclear",
    "kto_matched": false,
    "kto_title": ""
  },
  {
    "place_name": "귤꽃다락",
    "lat": 33.2464249,
    "lng": 126.5225977,
    "category": "unclear",
    "is_attraction": false,
    "source": "unclear",
    "kto_matched": false,
    "kto_title": ""
  },
  {
    "place_name": "귤밭76번지",
    "lat": 33.5042779,
    "lng": 126.519838,
    "category": "unclear",
    "is_attraction": false,
    "source": "unclear",
    "kto_matched": false,
    "kto_title": ""
  },
  {
    "place_name": "귤빛캠핑장",
    "lat": 33.5042779,
    "lng": 126.519838,
    "category": "accommodation",
    "is_attraction": false,
    "source": "keyword",
    "kto_matched": false,
    "kto_title": ""
  },
  {
    "place_name": "귤하르방 동문시장점",
    "lat": 33.51220199999999,
    "lng": 126.5273895,
    "category": "unclear",
    "is_attraction": false,
    "source": "unclear",
    "kto_matched": false,
    "kto_title": ""
  },
  {
    "place_name": "그꽃",
    "lat": 33.5567201,
    "lng": 126.7914106,
    "category": "unclear",
    "is_attraction": false,
    "source": "unclear",
    "kto_matched": false,
    "kto_title": ""
  },
  {
    "place_name": "그대, 나의 뮤즈 : 클림트 to 마티스",
    "lat": 33.3027115,
    "lng": 126.3170573,
    "category": "unclear",
    "is_attraction": false,
    "source": "unclear",
    "kto_matched": false,
    "kto_title": ""
  },
  {
    "place_name": "그대와함께라면",
    "lat": 33.4940014,
    "lng": 126.948786,
    "category": "food",
    "is_attraction": false,
    "source": "keyword",
    "kto_matched": false,
    "kto_title": ""
  },
  {
    "place_name": "그때그집 함덕",
    "lat": 33.5427934,
    "lng": 126.6646961,
    "category": "unclear",
    "is_attraction": false,
    "source": "unclear",
    "kto_matched": false,
    "kto_title": ""
  },
  {
    "place_name": "그라나다",
    "lat": 33.4812878,
    "lng": 126.4818949,
    "category": "unclear",
    "is_attraction": false,
    "source": "unclear",
    "kto_matched": false,
    "kto_title": ""
  },
  {
    "place_name": "그라벨호텔",
    "lat": 33.492444,
    "lng": 126.4286588,
    "category": "accommodation",
    "is_attraction": false,
    "source": "keyword",
    "kto_matched": false,
    "kto_title": ""
  },
  {
    "place_name": "그랑블루 요트투어",
    "lat": 33.2382431,
    "lng": 126.4396197,
    "category": "experience",
    "is_attraction": true,
    "source": "kto",
    "kto_matched": true,
    "kto_title": "제이엠그랑블루요트"
  },
  {
    "place_name": "그랑블루호 선상낚시",
    "lat": 33.5005323,
    "lng": 126.546723,
    "category": "unclear",
    "is_attraction": false,
    "source": "unclear",
    "kto_matched": false,
    "kto_title": ""
  },
  {
    "place_name": "그랑블루호(선상낚시)",
    "lat": 33.5005323,
    "lng": 126.546723,
    "category": "unclear",
    "is_attraction": false,
    "source": "unclear",
    "kto_matched": false,
    "kto_title": ""
  },
  {
    "place_name": "그랜드 조선 제주",
    "lat": 33.2524795,
    "lng": 126.4080501,
    "category": "unclear",
    "is_attraction": false,
    "source": "unclear",
    "kto_matched": false,
    "kto_title": ""
  },
  {
    "place_name": "그랜드 키친",
    "lat": 33.48588970000001,
    "lng": 126.4815364,
    "category": "food",
    "is_attraction": false,
    "source": "keyword",
    "kto_matched": false,
    "kto_title": ""
  },
  {
    "place_name": "그랜드 하얏트 제주",
    "lat": 33.4853707,
    "lng": 126.4815713,
    "category": "unclear",
    "is_attraction": false,
    "source": "unclear",
    "kto_matched": false,
    "kto_title": ""
  },
  {
    "place_name": "그랜드메르호텔",
    "lat": 33.2396011,
    "lng": 126.385934,
    "category": "accommodation",
    "is_attraction": false,
    "source": "keyword",
    "kto_matched": false,
    "kto_title": ""
  },
  {
    "place_name": "그랜드스윙",
    "lat": 33.48102,
    "lng": 126.5304717,
    "category": "unclear",
    "is_attraction": false,
    "source": "unclear",
    "kto_matched": false,
    "kto_title": ""
  },
  {
    "place_name": "그러므로",
    "lat": 33.4871778,
    "lng": 126.5352395,
    "category": "unclear",
    "is_attraction": false,
    "source": "unclear",
    "kto_matched": false,
    "kto_title": ""
  },
  {
    "place_name": "그러므로part2",
    "lat": 33.4684296,
    "lng": 126.4860264,
    "category": "unclear",
    "is_attraction": false,
    "source": "unclear",
    "kto_matched": false,
    "kto_title": ""
  },
  {
    "place_name": "그루브",
    "lat": 33.5042779,
    "lng": 126.519838,
    "category": "unclear",
    "is_attraction": false,
    "source": "unclear",
    "kto_matched": false,
    "kto_title": ""
  },
  {
    "place_name": "그리스신화박물관 / 트릭아이미술관",
    "lat": 33.5042779,
    "lng": 126.519838,
    "category": "culture",
    "is_attraction": true,
    "source": "keyword",
    "kto_matched": false,
    "kto_title": ""
  },
  {
    "place_name": "그리운바다성산포",
    "lat": 33.4698032,
    "lng": 126.9299962,
    "category": "unclear",
    "is_attraction": false,
    "source": "unclear",
    "kto_matched": false,
    "kto_title": ""
  },
  {
    "place_name": "그린나래",
    "lat": 33.4789631,
    "lng": 126.5337104,
    "category": "unclear",
    "is_attraction": false,
    "source": "unclear",
    "kto_matched": false,
    "kto_title": ""
  },
  {
    "place_name": "그린정",
    "lat": 33.2475,
    "lng": 126.4297222,
    "category": "unclear",
    "is_attraction": false,
    "source": "unclear",
    "kto_matched": false,
    "kto_title": ""
  },
  {
    "place_name": "그린트리인서귀포호텔",
    "lat": 33.2532177,
    "lng": 126.5609945,
    "category": "accommodation",
    "is_attraction": false,
    "source": "keyword",
    "kto_matched": false,
    "kto_title": ""
  },
  {
    "place_name": "그림같은풍경",
    "lat": 33.2686476,
    "lng": 126.1790066,
    "category": "unclear",
    "is_attraction": false,
    "source": "unclear",
    "kto_matched": false,
    "kto_title": ""
  },
  {
    "place_name": "그림리조트",
    "lat": 33.5162335,
    "lng": 126.5036173,
    "category": "accommodation",
    "is_attraction": false,
    "source": "keyword",
    "kto_matched": false,
    "kto_title": ""
  },
  {
    "place_name": "그림상회",
    "lat": 33.326212,
    "lng": 126.764971,
    "category": "unclear",
    "is_attraction": false,
    "source": "unclear",
    "kto_matched": false,
    "kto_title": ""
  },
  {
    "place_name": "그림책카페노란우산관광대점",
    "lat": 33.4487267,
    "lng": 126.4339396,
    "category": "cafe",
    "is_attraction": false,
    "source": "keyword",
    "kto_matched": false,
    "kto_title": ""
  },
  {
    "place_name": "그옛맛",
    "lat": 33.4984855,
    "lng": 126.5186358,
    "category": "unclear",
    "is_attraction": false,
    "source": "unclear",
    "kto_matched": false,
    "kto_title": ""
  },
  {
    "place_name": "그제바람 윈드서핑패들보드",
    "lat": 33.5259989,
    "lng": 126.5869086,
    "category": "unclear",
    "is_attraction": false,
    "source": "unclear",
    "kto_matched": false,
    "kto_title": ""
  },
  {
    "place_name": "그초록",
    "lat": 33.5564207,
    "lng": 126.8063909,
    "category": "unclear",
    "is_attraction": false,
    "source": "unclear",
    "kto_matched": false,
    "kto_title": ""
  },
  {
    "place_name": "글라글라하와이",
    "lat": 33.219539,
    "lng": 126.2513909,
    "category": "unclear",
    "is_attraction": false,
    "source": "unclear",
    "kto_matched": false,
    "kto_title": ""
  },
  {
    "place_name": "금능샌드",
    "lat": 33.3891615,
    "lng": 126.2325102,
    "category": "history",
    "is_attraction": true,
    "source": "kto",
    "kto_matched": true,
    "kto_title": "금능포구"
  },
  {
    "place_name": "금능석물원",
    "lat": 33.3851246,
    "lng": 126.2271401,
    "category": "nature",
    "is_attraction": true,
    "source": "kto",
    "kto_matched": true,
    "kto_title": "금능석물원"
  },
  {
    "place_name": "금능이큐스테이호텔",
    "lat": 33.3898565,
    "lng": 126.235364,
    "category": "accommodation",
    "is_attraction": false,
    "source": "keyword",
    "kto_matched": false,
    "kto_title": ""
  },
  {
    "place_name": "금능제면소",
    "lat": 33.3881377,
    "lng": 126.2284472,
    "category": "food",
    "is_attraction": false,
    "source": "keyword",
    "kto_matched": false,
    "kto_title": ""
  },
  {
    "place_name": "금능포구",
    "lat": 33.3903095,
    "lng": 126.2286713,
    "category": "nature",
    "is_attraction": true,
    "source": "keyword",
    "kto_matched": false,
    "kto_title": ""
  },
  {
    "place_name": "금능해수욕장",
    "lat": 33.3898565,
    "lng": 126.235364,
    "category": "experience",
    "is_attraction": true,
    "source": "kto",
    "kto_matched": true,
    "kto_title": "금능해수욕장 야영장"
  },
  {
    "place_name": "금당목장ATV",
    "lat": 33.3322553,
    "lng": 126.346718,
    "category": "experience",
    "is_attraction": true,
    "source": "keyword",
    "kto_matched": false,
    "kto_title": ""
  },
  {
    "place_name": "금덕무환자나무및팽나무군락",
    "lat": 33.4418296,
    "lng": 126.4006197,
    "category": "unclear",
    "is_attraction": false,
    "source": "unclear",
    "kto_matched": false,
    "kto_title": ""
  },
  {
    "place_name": "금돈가",
    "lat": 33.4838872,
    "lng": 126.4821373,
    "category": "unclear",
    "is_attraction": false,
    "source": "unclear",
    "kto_matched": false,
    "kto_title": ""
  },
  {
    "place_name": "금보가든",
    "lat": 33.4355195,
    "lng": 126.6757539,
    "category": "unclear",
    "is_attraction": false,
    "source": "unclear",
    "kto_matched": false,
    "kto_title": ""
  },
  {
    "place_name": "금붕사",
    "lat": 33.5009637,
    "lng": 126.8888319,
    "category": "unclear",
    "is_attraction": false,
    "source": "unclear",
    "kto_matched": false,
    "kto_title": ""
  },
  {
    "place_name": "금뽕똘향토음식점",
    "lat": 33.4901616,
    "lng": 126.5949354,
    "category": "food",
    "is_attraction": false,
    "source": "keyword",
    "kto_matched": false,
    "kto_title": ""
  },
  {
    "place_name": "금성포구",
    "lat": 33.4468118,
    "lng": 126.2982815,
    "category": "nature",
    "is_attraction": true,
    "source": "keyword",
    "kto_matched": false,
    "kto_title": ""
  },
  {
    "place_name": "금악똣똣라면",
    "lat": 33.3586969,
    "lng": 126.2966655,
    "category": "food",
    "is_attraction": false,
    "source": "keyword",
    "kto_matched": false,
    "kto_title": ""
  },
  {
    "place_name": "금악오름(왕매)",
    "lat": 33.355577,
    "lng": 126.3056877,
    "category": "nature",
    "is_attraction": true,
    "source": "kto",
    "kto_matched": true,
    "kto_title": "금오름"
  },
  {
    "place_name": "금호리조트제주",
    "lat": 33.2732518,
    "lng": 126.7014602,
    "category": "history",
    "is_attraction": true,
    "source": "kto",
    "kto_matched": true,
    "kto_title": "금호리조트 제주"
  },
  {
    "place_name": "기독교순례길 1코스(순종의길)",
    "lat": 33.4463282,
    "lng": 126.302726,
    "category": "unclear",
    "is_attraction": false,
    "source": "unclear",
    "kto_matched": false,
    "kto_title": ""
  },
  {
    "place_name": "기독교순례길 2코스(순교의길)",
    "lat": 33.4463282,
    "lng": 126.302726,
    "category": "unclear",
    "is_attraction": false,
    "source": "unclear",
    "kto_matched": false,
    "kto_title": ""
  },
  {
    "place_name": "기독교순례길 3코스(사명의길)",
    "lat": 33.4463282,
    "lng": 126.302726,
    "category": "unclear",
    "is_attraction": false,
    "source": "unclear",
    "kto_matched": false,
    "kto_title": ""
  },
  {
    "place_name": "기독교순례길 4코스(화해의길)",
    "lat": 33.5042779,
    "lng": 126.519838,
    "category": "unclear",
    "is_attraction": false,
    "source": "unclear",
    "kto_matched": false,
    "kto_title": ""
  },
  {
    "place_name": "기린빌라리조트",
    "lat": 33.320866,
    "lng": 126.6379283,
    "category": "accommodation",
    "is_attraction": false,
    "source": "keyword",
    "kto_matched": false,
    "kto_title": ""
  },
  {
    "place_name": "기억나는집",
    "lat": 33.2450717,
    "lng": 126.5622291,
    "category": "unclear",
    "is_attraction": false,
    "source": "unclear",
    "kto_matched": false,
    "kto_title": ""
  },
  {
    "place_name": "기영상회",
    "lat": 33.3943586,
    "lng": 126.2407889,
    "category": "unclear",
    "is_attraction": false,
    "source": "unclear",
    "kto_matched": false,
    "kto_title": ""
  },
  {
    "place_name": "기원 은갈치",
    "lat": 33.2573929,
    "lng": 126.4139268,
    "category": "food",
    "is_attraction": false,
    "source": "keyword",
    "kto_matched": false,
    "kto_title": ""
  },
  {
    "place_name": "길섶나그네펜션",
    "lat": 33.4683252,
    "lng": 126.6786855,
    "category": "accommodation",
    "is_attraction": false,
    "source": "keyword",
    "kto_matched": false,
    "kto_title": ""
  },
  {
    "place_name": "김경숙해바라기농장",
    "lat": 33.4788315,
    "lng": 126.6276395,
    "category": "experience",
    "is_attraction": true,
    "source": "keyword",
    "kto_matched": false,
    "kto_title": ""
  },
  {
    "place_name": "김군아미고게스트하우스",
    "lat": 33.4810559,
    "lng": 126.3740404,
    "category": "accommodation",
    "is_attraction": false,
    "source": "keyword",
    "kto_matched": false,
    "kto_title": ""
  },
  {
    "place_name": "김녕 지질트레일",
    "lat": 33.29476640000001,
    "lng": 126.1634255,
    "category": "unclear",
    "is_attraction": false,
    "source": "unclear",
    "kto_matched": false,
    "kto_title": ""
  },
  {
    "place_name": "김녕 청굴물",
    "lat": 33.5582697,
    "lng": 126.7512108,
    "category": "nature",
    "is_attraction": true,
    "source": "kto",
    "kto_matched": true,
    "kto_title": "김녕 청굴물"
  },
  {
    "place_name": "김녕금속공예벽화마을",
    "lat": 33.558005,
    "lng": 126.7465001,
    "category": "unclear",
    "is_attraction": false,
    "source": "unclear",
    "kto_matched": false,
    "kto_title": ""
  },
  {
    "place_name": "김녕빗소리",
    "lat": 33.5556613,
    "lng": 126.7539443,
    "category": "unclear",
    "is_attraction": false,
    "source": "unclear",
    "kto_matched": false,
    "kto_title": ""
  },
  {
    "place_name": "김녕빵집",
    "lat": 33.5546378,
    "lng": 126.7462547,
    "category": "unclear",
    "is_attraction": false,
    "source": "unclear",
    "kto_matched": false,
    "kto_title": ""
  },
  {
    "place_name": "김녕사굴",
    "lat": 33.54372910000001,
    "lng": 126.7756553,
    "category": "unclear",
    "is_attraction": false,
    "source": "unclear",
    "kto_matched": false,
    "kto_title": ""
  },
  {
    "place_name": "김녕세기알해변",
    "lat": 33.558169,
    "lng": 126.7553943,
    "category": "nature",
    "is_attraction": true,
    "source": "kto",
    "kto_matched": true,
    "kto_title": "세기알해변"
  },
  {
    "place_name": "김녕요트투어",
    "lat": 33.5582381,
    "lng": 126.7372137,
    "category": "nature",
    "is_attraction": true,
    "source": "kto",
    "kto_matched": true,
    "kto_title": "김녕항"
  },
  {
    "place_name": "김녕제주흑돼지정육점식당",
    "lat": 33.5527568,
    "lng": 126.7441786,
    "category": "food",
    "is_attraction": false,
    "source": "keyword",
    "kto_matched": false,
    "kto_title": ""
  },
  {
    "place_name": "김녕한옥 용암정원",
    "lat": 33.5577688,
    "lng": 126.7553116,
    "category": "accommodation",
    "is_attraction": false,
    "source": "keyword",
    "kto_matched": false,
    "kto_title": ""
  },
  {
    "place_name": "김녕항",
    "lat": 33.55848200000001,
    "lng": 126.73665,
    "category": "unclear",
    "is_attraction": false,
    "source": "unclear",
    "kto_matched": false,
    "kto_title": ""
  },
  {
    "place_name": "김녕해수욕장",
    "lat": 33.5582774,
    "lng": 126.759787,
    "category": "nature",
    "is_attraction": true,
    "source": "kto",
    "kto_matched": true,
    "kto_title": "김녕성세기해변 (김녕해수욕장)"
  },
  {
    "place_name": "김녕해수욕장야영장",
    "lat": 33.5583709,
    "lng": 126.7619279,
    "category": "nature",
    "is_attraction": true,
    "source": "kto",
    "kto_matched": true,
    "kto_title": "김녕성세기해변 (김녕해수욕장)"
  },
  {
    "place_name": "김녕해안도로",
    "lat": 33.5170488,
    "lng": 126.5033901,
    "category": "nature",
    "is_attraction": true,
    "source": "keyword",
    "kto_matched": false,
    "kto_title": ""
  },
  {
    "place_name": "김만덕 객주 호쏠장",
    "lat": 33.5164531,
    "lng": 126.5321246,
    "category": "culture",
    "is_attraction": true,
    "source": "kto",
    "kto_matched": true,
    "kto_title": "김만덕기념관"
  },
  {
    "place_name": "김만덕객주",
    "lat": 33.5164531,
    "lng": 126.5321246,
    "category": "culture",
    "is_attraction": true,
    "source": "kto",
    "kto_matched": true,
    "kto_title": "김만덕기념관"
  },
  {
    "place_name": "김만덕기념관",
    "lat": 33.5159804,
    "lng": 126.5304208,
    "category": "culture",
    "is_attraction": true,
    "source": "kto",
    "kto_matched": true,
    "kto_title": "김만덕기념관"
  },
  {
    "place_name": "김명자굴국밥(성산점)",
    "lat": 33.4636138,
    "lng": 126.9340253,
    "category": "food",
    "is_attraction": false,
    "source": "keyword",
    "kto_matched": false,
    "kto_title": ""
  },
  {
    "place_name": "김명자굴국밥(제주본점)",
    "lat": 33.4819238,
    "lng": 126.499349,
    "category": "food",
    "is_attraction": false,
    "source": "keyword",
    "kto_matched": false,
    "kto_title": ""
  },
  {
    "place_name": "김서프제주",
    "lat": 33.2506423,
    "lng": 126.4151572,
    "category": "unclear",
    "is_attraction": false,
    "source": "unclear",
    "kto_matched": false,
    "kto_title": ""
  },
  {
    "place_name": "김영갑갤러리 두모악",
    "lat": 33.372,
    "lng": 126.8542528,
    "category": "culture",
    "is_attraction": true,
    "source": "kto",
    "kto_matched": true,
    "kto_title": "김영갑갤러리두모악"
  },
  {
    "place_name": "김영수도서관",
    "lat": 33.5147653,
    "lng": 126.5221123,
    "category": "culture",
    "is_attraction": true,
    "source": "keyword",
    "kto_matched": false,
    "kto_title": ""
  },
  {
    "place_name": "김재훈고사리육개장",
    "lat": 33.4887834,
    "lng": 126.5330693,
    "category": "unclear",
    "is_attraction": false,
    "source": "unclear",
    "kto_matched": false,
    "kto_title": ""
  },
  {
    "place_name": "김지순의 낭푼밥상",
    "lat": 33.4859178,
    "lng": 126.476044,
    "category": "unclear",
    "is_attraction": false,
    "source": "unclear",
    "kto_matched": false,
    "kto_title": ""
  },
  {
    "place_name": "김택화미술관",
    "lat": 33.5437128,
    "lng": 126.6532369,
    "category": "culture",
    "is_attraction": true,
    "source": "kto",
    "kto_matched": true,
    "kto_title": "김택화 미술관"
  },
  {
    "place_name": "김한미술관 & 카페3206",
    "lat": 33.4089658,
    "lng": 126.2870566,
    "category": "cafe",
    "is_attraction": false,
    "source": "keyword",
    "kto_matched": false,
    "kto_title": ""
  },
  {
    "place_name": "김희선몸국",
    "lat": 33.5185299,
    "lng": 126.498041,
    "category": "unclear",
    "is_attraction": false,
    "source": "unclear",
    "kto_matched": false,
    "kto_title": ""
  },
  {
    "place_name": "김희선제주몸국",
    "lat": 33.5185299,
    "lng": 126.498041,
    "category": "unclear",
    "is_attraction": false,
    "source": "unclear",
    "kto_matched": false,
    "kto_title": ""
  },
  {
    "place_name": "깊커피",
    "lat": 33.5591946,
    "lng": 126.7927197,
    "category": "cafe",
    "is_attraction": false,
    "source": "keyword",
    "kto_matched": false,
    "kto_title": ""
  },
  {
    "place_name": "까끄래기오름",
    "lat": 33.431222,
    "lng": 126.7036854,
    "category": "nature",
    "is_attraction": true,
    "source": "keyword",
    "kto_matched": false,
    "kto_title": ""
  },
  {
    "place_name": "까떼커피",
    "lat": 33.5042779,
    "lng": 126.519838,
    "category": "cafe",
    "is_attraction": false,
    "source": "keyword",
    "kto_matched": false,
    "kto_title": ""
  },
  {
    "place_name": "까망고띠",
    "lat": 33.4849961,
    "lng": 126.6996539,
    "category": "unclear",
    "is_attraction": false,
    "source": "unclear",
    "kto_matched": false,
    "kto_title": ""
  },
  {
    "place_name": "까망돼지",
    "lat": 33.2574019,
    "lng": 126.4134702,
    "category": "unclear",
    "is_attraction": false,
    "source": "unclear",
    "kto_matched": false,
    "kto_title": ""
  },
  {
    "place_name": "까미노",
    "lat": 33.4578549,
    "lng": 126.3477779,
    "category": "unclear",
    "is_attraction": false,
    "source": "unclear",
    "kto_matched": false,
    "kto_title": ""
  },
  {
    "place_name": "까사데비발디호텔",
    "lat": 33.4952209,
    "lng": 126.5349138,
    "category": "accommodation",
    "is_attraction": false,
    "source": "keyword",
    "kto_matched": false,
    "kto_title": ""
  },
  {
    "place_name": "깜돈 흑돼지",
    "lat": 33.49048550000001,
    "lng": 126.495273,
    "category": "food",
    "is_attraction": false,
    "source": "keyword",
    "kto_matched": false,
    "kto_title": ""
  },
  {
    "place_name": "깡촌흑돼지",
    "lat": 33.5412831,
    "lng": 126.6672205,
    "category": "food",
    "is_attraction": false,
    "source": "keyword",
    "kto_matched": false,
    "kto_title": ""
  },
  {
    "place_name": "꼬꼬닭한마리",
    "lat": 33.2906338,
    "lng": 126.3009476,
    "category": "unclear",
    "is_attraction": false,
    "source": "unclear",
    "kto_matched": false,
    "kto_title": ""
  },
  {
    "place_name": "꽁순이네",
    "lat": 33.4469231,
    "lng": 126.3387948,
    "category": "unclear",
    "is_attraction": false,
    "source": "unclear",
    "kto_matched": false,
    "kto_title": ""
  },
  {
    "place_name": "꽃가람 제주성산일출봉점",
    "lat": 33.2624745,
    "lng": 126.3676286,
    "category": "food",
    "is_attraction": false,
    "source": "keyword+override",
    "kto_matched": false,
    "kto_title": ""
  },
  {
    "place_name": "꽃길만 걸어요 <제주 가을꽃 여행>",
    "lat": 33.5172687,
    "lng": 126.8074545,
    "category": "unclear",
    "is_attraction": false,
    "source": "unclear",
    "kto_matched": false,
    "kto_title": ""
  },
  {
    "place_name": "꽃담수제버거",
    "lat": 33.4630122,
    "lng": 126.9360023,
    "category": "food",
    "is_attraction": false,
    "source": "keyword",
    "kto_matched": false,
    "kto_title": ""
  },
  {
    "place_name": "꽃밥",
    "lat": 33.4515714,
    "lng": 126.3085415,
    "category": "unclear",
    "is_attraction": false,
    "source": "unclear",
    "kto_matched": false,
    "kto_title": ""
  },
  {
    "place_name": "꽃썸",
    "lat": 33.3090949,
    "lng": 126.3396184,
    "category": "unclear",
    "is_attraction": false,
    "source": "unclear",
    "kto_matched": false,
    "kto_title": ""
  },
  {
    "place_name": "꽃하루방게스트하우스",
    "lat": 33.4003299,
    "lng": 126.9028806,
    "category": "accommodation",
    "is_attraction": false,
    "source": "keyword",
    "kto_matched": false,
    "kto_title": ""
  },
  {
    "place_name": "꿀봉제주한림본점",
    "lat": 33.3590447,
    "lng": 126.296422,
    "category": "food",
    "is_attraction": false,
    "source": "keyword",
    "kto_matched": false,
    "kto_title": ""
  },
  {
    "place_name": "꿈꾸는 흰당나귀",
    "lat": 33.4979268,
    "lng": 126.5293048,
    "category": "unclear",
    "is_attraction": false,
    "source": "unclear",
    "kto_matched": false,
    "kto_title": ""
  },
  {
    "place_name": "꿈바당 어린이도서관",
    "lat": 33.480735,
    "lng": 126.5002152,
    "category": "culture",
    "is_attraction": true,
    "source": "keyword",
    "kto_matched": false,
    "kto_title": ""
  },
  {
    "place_name": "끄라비펜션",
    "lat": 33.2794224,
    "lng": 126.5916018,
    "category": "accommodation",
    "is_attraction": false,
    "source": "keyword",
    "kto_matched": false,
    "kto_title": ""
  },
  {
    "place_name": "나나이로 아코제주",
    "lat": 33.5215824,
    "lng": 126.8586933,
    "category": "unclear",
    "is_attraction": false,
    "source": "unclear",
    "kto_matched": false,
    "kto_title": ""
  },
  {
    "place_name": "나날 게스트하우스",
    "lat": 33.2426292,
    "lng": 126.5554453,
    "category": "accommodation",
    "is_attraction": false,
    "source": "keyword",
    "kto_matched": false,
    "kto_title": ""
  },
  {
    "place_name": "나라돈까스",
    "lat": 33.4951968,
    "lng": 126.4370568,
    "category": "unclear",
    "is_attraction": false,
    "source": "unclear",
    "kto_matched": false,
    "kto_title": ""
  },
  {
    "place_name": "나목도식당",
    "lat": 33.353487,
    "lng": 126.771838,
    "category": "food",
    "is_attraction": false,
    "source": "keyword",
    "kto_matched": false,
    "kto_title": ""
  },
  {
    "place_name": "나무아래",
    "lat": 33.4690846,
    "lng": 126.7700417,
    "category": "unclear",
    "is_attraction": false,
    "source": "unclear",
    "kto_matched": false,
    "kto_title": ""
  },
  {
    "place_name": "나무이야기게스트하우스",
    "lat": 33.5042779,
    "lng": 126.519838,
    "category": "accommodation",
    "is_attraction": false,
    "source": "keyword",
    "kto_matched": false,
    "kto_title": ""
  },
  {
    "place_name": "나미송 머무는 곳",
    "lat": 33.5042779,
    "lng": 126.519838,
    "category": "unclear",
    "is_attraction": false,
    "source": "unclear",
    "kto_matched": false,
    "kto_title": ""
  },
  {
    "place_name": "나바론절벽",
    "lat": 33.9562524,
    "lng": 126.2937148,
    "category": "nature",
    "is_attraction": true,
    "source": "keyword",
    "kto_matched": false,
    "kto_title": ""
  },
  {
    "place_name": "나비스호텔",
    "lat": 33.486458,
    "lng": 126.391601,
    "category": "accommodation",
    "is_attraction": false,
    "source": "keyword",
    "kto_matched": false,
    "kto_title": ""
  },
  {
    "place_name": "나원회포차",
    "lat": 33.2447371,
    "lng": 126.5688144,
    "category": "unclear",
    "is_attraction": false,
    "source": "unclear",
    "kto_matched": false,
    "kto_title": ""
  },
  {
    "place_name": "나인스파빌",
    "lat": 33.445423,
    "lng": 126.4303404,
    "category": "commercial",
    "is_attraction": false,
    "source": "keyword",
    "kto_matched": false,
    "kto_title": ""
  },
  {
    "place_name": "나틸다",
    "lat": 33.5042779,
    "lng": 126.519838,
    "category": "unclear",
    "is_attraction": false,
    "source": "unclear",
    "kto_matched": false,
    "kto_title": ""
  },
  {
    "place_name": "나폴리피자 서귀포중문점",
    "lat": 33.236358,
    "lng": 126.3623591,
    "category": "food",
    "is_attraction": false,
    "source": "keyword",
    "kto_matched": false,
    "kto_title": ""
  },
  {
    "place_name": "낙선동 4.3성",
    "lat": 33.514606,
    "lng": 126.693502,
    "category": "history",
    "is_attraction": true,
    "source": "keyword",
    "kto_matched": false,
    "kto_title": ""
  },
  {
    "place_name": "낙천리아홉굿의자마을",
    "lat": 33.3253272,
    "lng": 126.2276756,
    "category": "unclear",
    "is_attraction": false,
    "source": "unclear",
    "kto_matched": false,
    "kto_title": ""
  },
  {
    "place_name": "낙천아홉굿마을 의자공원",
    "lat": 33.3271486,
    "lng": 126.2267016,
    "category": "history",
    "is_attraction": true,
    "source": "kto",
    "kto_matched": true,
    "kto_title": "낙천아홉굿마을"
  },
  {
    "place_name": "낙타트래킹",
    "lat": 33.4025596,
    "lng": 126.7784919,
    "category": "history",
    "is_attraction": true,
    "source": "kto",
    "kto_matched": true,
    "kto_title": "낙타트레킹"
  },
  {
    "place_name": "난드르깡통구이",
    "lat": 33.541574,
    "lng": 126.673129,
    "category": "food",
    "is_attraction": false,
    "source": "keyword",
    "kto_matched": false,
    "kto_title": ""
  },
  {
    "place_name": "난드르바당",
    "lat": 33.2345344,
    "lng": 126.3709826,
    "category": "unclear",
    "is_attraction": false,
    "source": "unclear",
    "kto_matched": false,
    "kto_title": ""
  },
  {
    "place_name": "난산리다방",
    "lat": 33.3989506,
    "lng": 126.8679771,
    "category": "unclear",
    "is_attraction": false,
    "source": "unclear",
    "kto_matched": false,
    "kto_title": ""
  },
  {
    "place_name": "남경미락",
    "lat": 33.2301979,
    "lng": 126.3089371,
    "category": "unclear",
    "is_attraction": false,
    "source": "unclear",
    "kto_matched": false,
    "kto_title": ""
  },
  {
    "place_name": "남국사",
    "lat": 33.4589909,
    "lng": 126.5488089,
    "category": "unclear",
    "is_attraction": false,
    "source": "unclear",
    "kto_matched": false,
    "kto_title": ""
  },
  {
    "place_name": "남내소",
    "lat": 33.2690207,
    "lng": 126.6235709,
    "category": "unclear",
    "is_attraction": false,
    "source": "unclear",
    "kto_matched": false,
    "kto_title": ""
  },
  {
    "place_name": "남또리",
    "lat": 33.4727764,
    "lng": 126.3500695,
    "category": "unclear",
    "is_attraction": false,
    "source": "unclear",
    "kto_matched": false,
    "kto_title": ""
  },
  {
    "place_name": "남문지못",
    "lat": 33.2465587,
    "lng": 126.2764064,
    "category": "unclear",
    "is_attraction": false,
    "source": "unclear",
    "kto_matched": false,
    "kto_title": ""
  },
  {
    "place_name": "남수각 하늘길 벽화거리",
    "lat": 33.5114804,
    "lng": 126.5280604,
    "category": "unclear",
    "is_attraction": false,
    "source": "unclear",
    "kto_matched": false,
    "kto_title": ""
  },
  {
    "place_name": "남양수산",
    "lat": 33.517885,
    "lng": 126.522354,
    "category": "unclear",
    "is_attraction": false,
    "source": "unclear",
    "kto_matched": false,
    "kto_title": ""
  },
  {
    "place_name": "남원 위미2리 어촌계",
    "lat": 33.3785614,
    "lng": 126.5661908,
    "category": "food",
    "is_attraction": false,
    "source": "keyword",
    "kto_matched": false,
    "kto_title": ""
  },
  {
    "place_name": "남원콩나물국밥",
    "lat": 33.2824906,
    "lng": 126.7166398,
    "category": "food",
    "is_attraction": false,
    "source": "keyword",
    "kto_matched": false,
    "kto_title": ""
  },
  {
    "place_name": "남원큰엉해변",
    "lat": 33.2733146,
    "lng": 126.7048177,
    "category": "nature",
    "is_attraction": true,
    "source": "kto",
    "kto_matched": true,
    "kto_title": "남원 큰엉해안"
  },
  {
    "place_name": "남원항 (남원포구)",
    "lat": 33.3785614,
    "lng": 126.5661908,
    "category": "nature",
    "is_attraction": true,
    "source": "keyword",
    "kto_matched": false,
    "kto_title": ""
  },
  {
    "place_name": "납읍난대림 금산공원",
    "lat": 33.4337682,
    "lng": 126.3309964,
    "category": "nature",
    "is_attraction": true,
    "source": "keyword",
    "kto_matched": false,
    "kto_title": ""
  },
  {
    "place_name": "낭뜰에쉼팡",
    "lat": 33.4735811,
    "lng": 126.6571543,
    "category": "unclear",
    "is_attraction": false,
    "source": "unclear",
    "kto_matched": false,
    "kto_title": ""
  },
  {
    "place_name": "낭만주의",
    "lat": 33.4955266,
    "lng": 126.4376599,
    "category": "unclear",
    "is_attraction": false,
    "source": "unclear",
    "kto_matched": false,
    "kto_title": ""
  },
  {
    "place_name": "낭만펜션",
    "lat": 33.4641651,
    "lng": 126.3217957,
    "category": "accommodation",
    "is_attraction": false,
    "source": "keyword",
    "kto_matched": false,
    "kto_title": ""
  },
  {
    "place_name": "낭쿰낭쿰 올레시장본점",
    "lat": 33.2487163,
    "lng": 126.5640617,
    "category": "food",
    "is_attraction": false,
    "source": "keyword",
    "kto_matched": false,
    "kto_title": ""
  },
  {
    "place_name": "내담",
    "lat": 33.2515313,
    "lng": 126.5126675,
    "category": "unclear",
    "is_attraction": false,
    "source": "unclear",
    "kto_matched": false,
    "kto_title": ""
  },
  {
    "place_name": "내도바당펜션",
    "lat": 33.4957899,
    "lng": 126.440455,
    "category": "accommodation",
    "is_attraction": false,
    "source": "keyword",
    "kto_matched": false,
    "kto_title": ""
  },
  {
    "place_name": "냠냠제주",
    "lat": 33.5195859,
    "lng": 126.6320441,
    "category": "unclear",
    "is_attraction": false,
    "source": "unclear",
    "kto_matched": false,
    "kto_title": ""
  },
  {
    "place_name": "너는파라다이스길리",
    "lat": 33.5566513,
    "lng": 126.7937413,
    "category": "unclear",
    "is_attraction": false,
    "source": "unclear",
    "kto_matched": false,
    "kto_title": ""
  },
  {
    "place_name": "너도나도 ATV",
    "lat": 33.4542398,
    "lng": 126.6215324,
    "category": "experience",
    "is_attraction": true,
    "source": "keyword",
    "kto_matched": false,
    "kto_title": ""
  },
  {
    "place_name": "너븐숭이 4.3기념관",
    "lat": 33.5459875,
    "lng": 126.6887641,
    "category": "history",
    "is_attraction": true,
    "source": "keyword",
    "kto_matched": false,
    "kto_title": ""
  },
  {
    "place_name": "넉둥베기 고사리육개장",
    "lat": 33.5098237,
    "lng": 126.512679,
    "category": "unclear",
    "is_attraction": false,
    "source": "unclear",
    "kto_matched": false,
    "kto_title": ""
  },
  {
    "place_name": "넌걸어난탈래",
    "lat": 33.5042779,
    "lng": 126.519838,
    "category": "unclear",
    "is_attraction": false,
    "source": "unclear",
    "kto_matched": false,
    "kto_title": ""
  },
  {
    "place_name": "넘버 138",
    "lat": 33.5042779,
    "lng": 126.519838,
    "category": "unclear",
    "is_attraction": false,
    "source": "unclear",
    "kto_matched": false,
    "kto_title": ""
  },
  {
    "place_name": "넘은봄",
    "lat": 33.5104151,
    "lng": 126.5663191,
    "category": "unclear",
    "is_attraction": false,
    "source": "unclear",
    "kto_matched": false,
    "kto_title": ""
  },
  {
    "place_name": "네모랑",
    "lat": 33.2350779,
    "lng": 126.5067304,
    "category": "unclear",
    "is_attraction": false,
    "source": "unclear",
    "kto_matched": false,
    "kto_title": ""
  },
  {
    "place_name": "네이쳐캔바스",
    "lat": 33.283037,
    "lng": 126.6308418,
    "category": "unclear",
    "is_attraction": false,
    "source": "unclear",
    "kto_matched": false,
    "kto_title": ""
  },
  {
    "place_name": "넥슨컴퓨터박물관",
    "lat": 33.4718397,
    "lng": 126.4849459,
    "category": "culture",
    "is_attraction": true,
    "source": "kto",
    "kto_matched": true,
    "kto_title": "넥슨컴퓨터박물관"
  },
  {
    "place_name": "노라바",
    "lat": 33.4826657,
    "lng": 126.376182,
    "category": "unclear",
    "is_attraction": false,
    "source": "unclear",
    "kto_matched": false,
    "kto_title": ""
  },
  {
    "place_name": "노루생태관찰원",
    "lat": 33.4443414,
    "lng": 126.6267536,
    "category": "nature",
    "is_attraction": true,
    "source": "kto",
    "kto_matched": true,
    "kto_title": "제주 노루생태관찰원"
  },
  {
    "place_name": "노리매 테마파크",
    "lat": 33.2826639,
    "lng": 126.2869184,
    "category": "history",
    "is_attraction": true,
    "source": "kto",
    "kto_matched": true,
    "kto_title": "노리매공원"
  },
  {
    "place_name": "노리터스낵",
    "lat": 33.457031,
    "lng": 126.3469195,
    "category": "unclear",
    "is_attraction": false,
    "source": "unclear",
    "kto_matched": false,
    "kto_title": ""
  },
  {
    "place_name": "노블레스호텔",
    "lat": 33.4829974,
    "lng": 126.4908072,
    "category": "accommodation",
    "is_attraction": false,
    "source": "keyword",
    "kto_matched": false,
    "kto_title": ""
  },
  {
    "place_name": "노을과어울림",
    "lat": 33.270743,
    "lng": 126.1761741,
    "category": "unclear",
    "is_attraction": false,
    "source": "unclear",
    "kto_matched": false,
    "kto_title": ""
  },
  {
    "place_name": "노을과원담",
    "lat": 33.3318117,
    "lng": 126.1662152,
    "category": "unclear",
    "is_attraction": false,
    "source": "unclear",
    "kto_matched": false,
    "kto_title": ""
  },
  {
    "place_name": "노을과포도향기",
    "lat": 33.4512667,
    "lng": 126.3656872,
    "category": "unclear",
    "is_attraction": false,
    "source": "unclear",
    "kto_matched": false,
    "kto_title": ""
  },
  {
    "place_name": "노을리",
    "lat": 33.5042779,
    "lng": 126.519838,
    "category": "unclear",
    "is_attraction": false,
    "source": "unclear",
    "kto_matched": false,
    "kto_title": ""
  },
  {
    "place_name": "노을승마장",
    "lat": 33.5134898,
    "lng": 126.9462725,
    "category": "experience",
    "is_attraction": true,
    "source": "keyword",
    "kto_matched": false,
    "kto_title": ""
  },
  {
    "place_name": "노을언덕",
    "lat": 33.5106256,
    "lng": 126.4834536,
    "category": "unclear",
    "is_attraction": false,
    "source": "unclear",
    "kto_matched": false,
    "kto_title": ""
  },
  {
    "place_name": "노을해안1014",
    "lat": 33.2977213,
    "lng": 126.168477,
    "category": "nature",
    "is_attraction": true,
    "source": "keyword",
    "kto_matched": false,
    "kto_title": ""
  },
  {
    "place_name": "노을해안로",
    "lat": 33.2978379,
    "lng": 126.167856,
    "category": "nature",
    "is_attraction": true,
    "source": "kto",
    "kto_matched": true,
    "kto_title": "엉알해안"
  },
  {
    "place_name": "노조미",
    "lat": 33.4795149,
    "lng": 126.4903136,
    "category": "unclear",
    "is_attraction": false,
    "source": "unclear",
    "kto_matched": false,
    "kto_title": ""
  },
  {
    "place_name": "노티드 제주 DT점",
    "lat": 33.4927938,
    "lng": 126.5020639,
    "category": "cafe",
    "is_attraction": false,
    "source": "keyword",
    "kto_matched": false,
    "kto_title": ""
  },
  {
    "place_name": "노형수퍼마켙",
    "lat": 33.4649309,
    "lng": 126.4553144,
    "category": "food",
    "is_attraction": false,
    "source": "kto+override",
    "kto_matched": true,
    "kto_title": "노형수퍼마켙"
  },
  {
    "place_name": "녹고뫼 캠핑장",
    "lat": 33.5042779,
    "lng": 126.519838,
    "category": "accommodation",
    "is_attraction": false,
    "source": "keyword",
    "kto_matched": false,
    "kto_title": ""
  },
  {
    "place_name": "녹나무",
    "lat": 33.4853349,
    "lng": 126.481228,
    "category": "unclear",
    "is_attraction": false,
    "source": "unclear",
    "kto_matched": false,
    "kto_title": ""
  },
  {
    "place_name": "녹산로유채꽃길",
    "lat": 33.3986603,
    "lng": 126.7201015,
    "category": "unclear",
    "is_attraction": false,
    "source": "unclear",
    "kto_matched": false,
    "kto_title": ""
  },
  {
    "place_name": "녹원전통찻집",
    "lat": 33.5076238,
    "lng": 126.5243378,
    "category": "food",
    "is_attraction": false,
    "source": "keyword",
    "kto_matched": false,
    "kto_title": ""
  },
  {
    "place_name": "논짓물",
    "lat": 33.4886495,
    "lng": 126.4922456,
    "category": "unclear",
    "is_attraction": false,
    "source": "unclear",
    "kto_matched": false,
    "kto_title": ""
  },
  {
    "place_name": "놀놀플레이그라운드카페",
    "lat": 33.4944016,
    "lng": 126.8070016,
    "category": "cafe",
    "is_attraction": false,
    "source": "keyword",
    "kto_matched": false,
    "kto_title": ""
  },
  {
    "place_name": "농개",
    "lat": 33.3734481,
    "lng": 126.8742615,
    "category": "unclear",
    "is_attraction": false,
    "source": "unclear",
    "kto_matched": false,
    "kto_title": ""
  },
  {
    "place_name": "누룽지식당",
    "lat": 33.4942643,
    "lng": 126.5320041,
    "category": "food",
    "is_attraction": false,
    "source": "keyword",
    "kto_matched": false,
    "kto_title": ""
  },
  {
    "place_name": "누바비치",
    "lat": 33.5042779,
    "lng": 126.519838,
    "category": "unclear",
    "is_attraction": false,
    "source": "unclear",
    "kto_matched": false,
    "kto_title": ""
  },
  {
    "place_name": "누운오름(한림읍)",
    "lat": 33.3622691,
    "lng": 126.3312503,
    "category": "nature",
    "is_attraction": true,
    "source": "keyword",
    "kto_matched": false,
    "kto_title": ""
  },
  {
    "place_name": "누웨마루거리(구 바오젠)",
    "lat": 33.5042779,
    "lng": 126.519838,
    "category": "unclear",
    "is_attraction": false,
    "source": "unclear",
    "kto_matched": false,
    "kto_title": ""
  },
  {
    "place_name": "누이밥집",
    "lat": 33.2630473,
    "lng": 126.441236,
    "category": "unclear",
    "is_attraction": false,
    "source": "unclear",
    "kto_matched": false,
    "kto_title": ""
  },
  {
    "place_name": "눈물의십자가",
    "lat": 33.5042779,
    "lng": 126.519838,
    "category": "unclear",
    "is_attraction": false,
    "source": "unclear",
    "kto_matched": false,
    "kto_title": ""
  },
  {
    "place_name": "뉴저지카페",
    "lat": 33.5042779,
    "lng": 126.519838,
    "category": "cafe",
    "is_attraction": false,
    "source": "keyword",
    "kto_matched": false,
    "kto_title": ""
  },
  {
    "place_name": "뉴제주호텔",
    "lat": 33.4855064,
    "lng": 126.482656,
    "category": "accommodation",
    "is_attraction": false,
    "source": "keyword",
    "kto_matched": false,
    "kto_title": ""
  },
  {
    "place_name": "느르왓",
    "lat": 33.305222,
    "lng": 126.184135,
    "category": "unclear",
    "is_attraction": false,
    "source": "unclear",
    "kto_matched": false,
    "kto_title": ""
  },
  {
    "place_name": "느영나영 감귤창고",
    "lat": 33.2886371,
    "lng": 126.3300518,
    "category": "unclear",
    "is_attraction": false,
    "source": "unclear",
    "kto_matched": false,
    "kto_title": ""
  },
  {
    "place_name": "느지리오름(망오름)",
    "lat": 33.3653429,
    "lng": 126.2613767,
    "category": "nature",
    "is_attraction": true,
    "source": "kto",
    "kto_matched": true,
    "kto_title": "느지리오름"
  },
  {
    "place_name": "늘보의작업실",
    "lat": 33.4959396,
    "lng": 126.8998255,
    "category": "unclear",
    "is_attraction": false,
    "source": "unclear",
    "kto_matched": false,
    "kto_title": ""
  },
  {
    "place_name": "늘봄흑돼지",
    "lat": 33.479434,
    "lng": 126.4728596,
    "category": "food",
    "is_attraction": false,
    "source": "keyword",
    "kto_matched": false,
    "kto_title": ""
  },
  {
    "place_name": "늘소담",
    "lat": 33.5174337,
    "lng": 126.521456,
    "category": "unclear",
    "is_attraction": false,
    "source": "unclear",
    "kto_matched": false,
    "kto_title": ""
  },
  {
    "place_name": "늘푸른농원 연리지가든",
    "lat": 33.3444986,
    "lng": 126.2027639,
    "category": "unclear",
    "is_attraction": false,
    "source": "unclear",
    "kto_matched": false,
    "kto_title": ""
  },
  {
    "place_name": "닐모리동동",
    "lat": 33.51774,
    "lng": 126.4878545,
    "category": "unclear",
    "is_attraction": false,
    "source": "unclear",
    "kto_matched": false,
    "kto_title": ""
  },
  {
    "place_name": "다가미 애월점",
    "lat": 33.4607153,
    "lng": 126.4472392,
    "category": "unclear",
    "is_attraction": false,
    "source": "unclear",
    "kto_matched": false,
    "kto_title": ""
  },
  {
    "place_name": "다가미(도남)",
    "lat": 33.4904468,
    "lng": 126.5287275,
    "category": "unclear",
    "is_attraction": false,
    "source": "unclear",
    "kto_matched": false,
    "kto_title": ""
  },
  {
    "place_name": "다끄네포구(용담포구)",
    "lat": 33.5182941,
    "lng": 126.499918,
    "category": "nature",
    "is_attraction": true,
    "source": "keyword",
    "kto_matched": false,
    "kto_title": ""
  },
  {
    "place_name": "다니쉬",
    "lat": 33.5421218,
    "lng": 126.6637469,
    "category": "unclear",
    "is_attraction": false,
    "source": "unclear",
    "kto_matched": false,
    "kto_title": ""
  },
  {
    "place_name": "다다익고 정육점식당 호텔더본점",
    "lat": 33.5095328,
    "lng": 126.4792906,
    "category": "food",
    "is_attraction": false,
    "source": "keyword",
    "kto_matched": false,
    "kto_title": ""
  },
  {
    "place_name": "다락마마",
    "lat": 33.5172391,
    "lng": 126.8662162,
    "category": "unclear",
    "is_attraction": false,
    "source": "unclear",
    "kto_matched": false,
    "kto_title": ""
  },
  {
    "place_name": "다람쥐 식탁",
    "lat": 33.4077933,
    "lng": 126.2657584,
    "category": "unclear",
    "is_attraction": false,
    "source": "unclear",
    "kto_matched": false,
    "kto_title": ""
  },
  {
    "place_name": "다랑쉬굴",
    "lat": 33.4675541,
    "lng": 126.8290305,
    "category": "nature",
    "is_attraction": true,
    "source": "keyword",
    "kto_matched": false,
    "kto_title": ""
  },
  {
    "place_name": "다랑쉬마을",
    "lat": 33.470322,
    "lng": 126.8262818,
    "category": "nature",
    "is_attraction": true,
    "source": "keyword",
    "kto_matched": false,
    "kto_title": ""
  },
  {
    "place_name": "다랑쉬오름(월랑봉)",
    "lat": 33.4776536,
    "lng": 126.821585,
    "category": "nature",
    "is_attraction": true,
    "source": "keyword",
    "kto_matched": false,
    "kto_title": ""
  },
  {
    "place_name": "다래향",
    "lat": 33.5458152,
    "lng": 126.660728,
    "category": "unclear",
    "is_attraction": false,
    "source": "unclear",
    "kto_matched": false,
    "kto_title": ""
  },
  {
    "place_name": "다래향2호점",
    "lat": 33.5582612,
    "lng": 126.7541067,
    "category": "unclear",
    "is_attraction": false,
    "source": "unclear",
    "kto_matched": false,
    "kto_title": ""
  },
  {
    "place_name": "다려도",
    "lat": 33.5555492,
    "lng": 126.695726,
    "category": "nature",
    "is_attraction": true,
    "source": "kto",
    "kto_matched": true,
    "kto_title": "다려도"
  },
  {
    "place_name": "다만프레르",
    "lat": 33.5042779,
    "lng": 126.519838,
    "category": "unclear",
    "is_attraction": false,
    "source": "unclear",
    "kto_matched": false,
    "kto_title": ""
  },
  {
    "place_name": "다미진",
    "lat": 33.3251026,
    "lng": 126.8441233,
    "category": "unclear",
    "is_attraction": false,
    "source": "unclear",
    "kto_matched": false,
    "kto_title": ""
  },
  {
    "place_name": "다미회",
    "lat": 33.5004457,
    "lng": 126.5312734,
    "category": "unclear",
    "is_attraction": false,
    "source": "unclear",
    "kto_matched": false,
    "kto_title": ""
  },
  {
    "place_name": "다시방프로젝트",
    "lat": 33.5042779,
    "lng": 126.519838,
    "category": "unclear",
    "is_attraction": false,
    "source": "unclear",
    "kto_matched": false,
    "kto_title": ""
  },
  {
    "place_name": "다올터해장국",
    "lat": 33.2498483,
    "lng": 126.5674471,
    "category": "unclear",
    "is_attraction": false,
    "source": "unclear",
    "kto_matched": false,
    "kto_title": ""
  },
  {
    "place_name": "다육이풍경",
    "lat": 33.2588358,
    "lng": 126.6225341,
    "category": "unclear",
    "is_attraction": false,
    "source": "unclear",
    "kto_matched": false,
    "kto_title": ""
  },
  {
    "place_name": "다이나믹메이즈",
    "lat": 33.399111,
    "lng": 126.7850112,
    "category": "history",
    "is_attraction": true,
    "source": "kto",
    "kto_matched": true,
    "kto_title": "다이나믹 메이즈 제주"
  },
  {
    "place_name": "다이아나호텔",
    "lat": 33.5042779,
    "lng": 126.519838,
    "category": "accommodation",
    "is_attraction": false,
    "source": "keyword",
    "kto_matched": false,
    "kto_title": ""
  },
  {
    "place_name": "다인리조트",
    "lat": 33.4715798,
    "lng": 126.3513363,
    "category": "accommodation",
    "is_attraction": false,
    "source": "keyword",
    "kto_matched": false,
    "kto_title": ""
  },
  {
    "place_name": "다인오세아노 호텔",
    "lat": 33.4725009,
    "lng": 126.3504542,
    "category": "accommodation",
    "is_attraction": false,
    "source": "keyword",
    "kto_matched": false,
    "kto_title": ""
  },
  {
    "place_name": "다정이네 올레시장 본점",
    "lat": 33.2493993,
    "lng": 126.5668465,
    "category": "food",
    "is_attraction": false,
    "source": "keyword",
    "kto_matched": false,
    "kto_title": ""
  },
  {
    "place_name": "다정이네김밥 서귀포신시가지점",
    "lat": 33.2363518,
    "lng": 126.5001295,
    "category": "unclear",
    "is_attraction": false,
    "source": "unclear",
    "kto_matched": false,
    "kto_title": ""
  },
  {
    "place_name": "다해복국",
    "lat": 33.4882701,
    "lng": 126.4991672,
    "category": "unclear",
    "is_attraction": false,
    "source": "unclear",
    "kto_matched": false,
    "kto_title": ""
  },
  {
    "place_name": "닥그네할망",
    "lat": 33.4952689,
    "lng": 126.5300556,
    "category": "unclear",
    "is_attraction": false,
    "source": "unclear",
    "kto_matched": false,
    "kto_title": ""
  },
  {
    "place_name": "단빌리지민박",
    "lat": 33.5042779,
    "lng": 126.519838,
    "category": "accommodation",
    "is_attraction": false,
    "source": "keyword",
    "kto_matched": false,
    "kto_title": ""
  },
  {
    "place_name": "단산(바굼지오름)",
    "lat": 33.2430707,
    "lng": 126.2891226,
    "category": "nature",
    "is_attraction": true,
    "source": "keyword",
    "kto_matched": false,
    "kto_title": ""
  },
  {
    "place_name": "단추스테이",
    "lat": 33.3882854,
    "lng": 126.2236887,
    "category": "accommodation",
    "is_attraction": false,
    "source": "keyword",
    "kto_matched": false,
    "kto_title": ""
  },
  {
    "place_name": "단추스테이 단추숲",
    "lat": 33.3882854,
    "lng": 126.2236887,
    "category": "accommodation",
    "is_attraction": false,
    "source": "keyword",
    "kto_matched": false,
    "kto_title": ""
  },
  {
    "place_name": "달그락식탁",
    "lat": 33.474151,
    "lng": 126.5487973,
    "category": "unclear",
    "is_attraction": false,
    "source": "unclear",
    "kto_matched": false,
    "kto_title": ""
  },
  {
    "place_name": "달리맨",
    "lat": 33.4371469,
    "lng": 126.9131865,
    "category": "unclear",
    "is_attraction": false,
    "source": "unclear",
    "kto_matched": false,
    "kto_title": ""
  },
  {
    "place_name": "달리센트",
    "lat": 33.4903833,
    "lng": 126.8986919,
    "category": "unclear",
    "is_attraction": false,
    "source": "unclear",
    "kto_matched": false,
    "kto_title": ""
  },
  {
    "place_name": "달빛고운펜션",
    "lat": 33.5553174,
    "lng": 126.7963809,
    "category": "accommodation",
    "is_attraction": false,
    "source": "keyword",
    "kto_matched": false,
    "kto_title": ""
  },
  {
    "place_name": "달빛바다펜션",
    "lat": 33.5174185,
    "lng": 126.4987784,
    "category": "accommodation",
    "is_attraction": false,
    "source": "keyword",
    "kto_matched": false,
    "kto_title": ""
  },
  {
    "place_name": "달아래팥",
    "lat": 33.3240679,
    "lng": 126.2291082,
    "category": "unclear",
    "is_attraction": false,
    "source": "unclear",
    "kto_matched": false,
    "kto_title": ""
  },
  {
    "place_name": "달이뜨는식탁",
    "lat": 33.5531909,
    "lng": 126.7908654,
    "category": "unclear",
    "is_attraction": false,
    "source": "unclear",
    "kto_matched": false,
    "kto_title": ""
  },
  {
    "place_name": "달자카페",
    "lat": 33.4835323,
    "lng": 126.3799448,
    "category": "cafe",
    "is_attraction": false,
    "source": "keyword",
    "kto_matched": false,
    "kto_title": ""
  },
  {
    "place_name": "달잠키친",
    "lat": 33.5400686,
    "lng": 126.6737572,
    "category": "food",
    "is_attraction": false,
    "source": "keyword",
    "kto_matched": false,
    "kto_title": ""
  },
  {
    "place_name": "달집게스트하우스",
    "lat": 33.4936873,
    "lng": 126.9010713,
    "category": "accommodation",
    "is_attraction": false,
    "source": "keyword",
    "kto_matched": false,
    "kto_title": ""
  },
  {
    "place_name": "달치즈",
    "lat": 33.5241707,
    "lng": 126.8620995,
    "category": "unclear",
    "is_attraction": false,
    "source": "unclear",
    "kto_matched": false,
    "kto_title": ""
  },
  {
    "place_name": "달콤한휴식",
    "lat": 33.4228496,
    "lng": 126.3361423,
    "category": "unclear",
    "is_attraction": false,
    "source": "unclear",
    "kto_matched": false,
    "kto_title": ""
  },
  {
    "place_name": "달팽이식당",
    "lat": 33.2661265,
    "lng": 126.3721822,
    "category": "food",
    "is_attraction": false,
    "source": "keyword",
    "kto_matched": false,
    "kto_title": ""
  },
  {
    "place_name": "닭머르해안길",
    "lat": 33.53653630000001,
    "lng": 126.611795,
    "category": "nature",
    "is_attraction": true,
    "source": "keyword",
    "kto_matched": false,
    "kto_title": ""
  },
  {
    "place_name": "담그멍족욕카페",
    "lat": 33.5152133,
    "lng": 126.5269425,
    "category": "cafe",
    "is_attraction": false,
    "source": "keyword",
    "kto_matched": false,
    "kto_title": ""
  },
  {
    "place_name": "담다",
    "lat": 33.3604593,
    "lng": 126.766085,
    "category": "unclear",
    "is_attraction": false,
    "source": "unclear",
    "kto_matched": false,
    "kto_title": ""
  },
  {
    "place_name": "담모라 호텔앤리조트",
    "lat": 33.2497388,
    "lng": 126.3060973,
    "category": "accommodation",
    "is_attraction": false,
    "source": "keyword",
    "kto_matched": false,
    "kto_title": ""
  },
  {
    "place_name": "담소요",
    "lat": 33.2995994,
    "lng": 126.62492,
    "category": "unclear",
    "is_attraction": false,
    "source": "unclear",
    "kto_matched": false,
    "kto_title": ""
  },
  {
    "place_name": "담아래",
    "lat": 33.4690102,
    "lng": 126.4858523,
    "category": "unclear",
    "is_attraction": false,
    "source": "unclear",
    "kto_matched": false,
    "kto_title": ""
  },
  {
    "place_name": "담앤루리조트",
    "lat": 33.2453084,
    "lng": 126.4512913,
    "category": "accommodation",
    "is_attraction": false,
    "source": "keyword",
    "kto_matched": false,
    "kto_title": ""
  },
  {
    "place_name": "답다니 탑망대 (하트원담)",
    "lat": 33.524757,
    "lng": 126.9525901,
    "category": "history",
    "is_attraction": true,
    "source": "kto",
    "kto_matched": true,
    "kto_title": "답다니탑망대"
  },
  {
    "place_name": "답다니수국밭",
    "lat": 33.2437573,
    "lng": 126.4645228,
    "category": "nature",
    "is_attraction": true,
    "source": "kto",
    "kto_matched": true,
    "kto_title": "답다니수국밭"
  },
  {
    "place_name": "당근가게",
    "lat": 33.5042779,
    "lng": 126.519838,
    "category": "unclear",
    "is_attraction": false,
    "source": "unclear",
    "kto_matched": false,
    "kto_title": ""
  },
  {
    "place_name": "당산봉(당오름,차귀오름)",
    "lat": 33.3078998,
    "lng": 126.1727444,
    "category": "religious",
    "is_attraction": true,
    "source": "kto",
    "kto_matched": true,
    "kto_title": "당산봉"
  },
  {
    "place_name": "당오름",
    "lat": 33.4663889,
    "lng": 126.7777778,
    "category": "nature",
    "is_attraction": true,
    "source": "keyword",
    "kto_matched": false,
    "kto_title": ""
  },
  {
    "place_name": "당오름(안덕면)",
    "lat": 33.3199654,
    "lng": 126.3475009,
    "category": "food",
    "is_attraction": false,
    "source": "keyword",
    "kto_matched": false,
    "kto_title": ""
  },
  {
    "place_name": "당오름(한경면)",
    "lat": 33.3078998,
    "lng": 126.1727444,
    "category": "food",
    "is_attraction": false,
    "source": "keyword",
    "kto_matched": false,
    "kto_title": ""
  },
  {
    "place_name": "당케산물(당케포구)",
    "lat": 33.3263629,
    "lng": 126.8469204,
    "category": "religious",
    "is_attraction": true,
    "source": "kto",
    "kto_matched": true,
    "kto_title": "당케포구"
  },
  {
    "place_name": "당케올레국수",
    "lat": 33.3253355,
    "lng": 126.8431227,
    "category": "food",
    "is_attraction": false,
    "source": "kto+override",
    "kto_matched": true,
    "kto_title": "당케포구"
  },
  {
    "place_name": "당포로나인돈카츠",
    "lat": 33.3257518,
    "lng": 126.8436516,
    "category": "unclear",
    "is_attraction": false,
    "source": "unclear",
    "kto_matched": false,
    "kto_title": ""
  },
  {
    "place_name": "대기정",
    "lat": 33.2403093,
    "lng": 126.4286681,
    "category": "unclear",
    "is_attraction": false,
    "source": "unclear",
    "kto_matched": false,
    "kto_title": ""
  },
  {
    "place_name": "대니스카페",
    "lat": 33.497816,
    "lng": 126.967993,
    "category": "cafe",
    "is_attraction": false,
    "source": "keyword",
    "kto_matched": false,
    "kto_title": ""
  },
  {
    "place_name": "대담 애월본점",
    "lat": 33.4825038,
    "lng": 126.4014073,
    "category": "food",
    "is_attraction": false,
    "source": "keyword",
    "kto_matched": false,
    "kto_title": ""
  },